id,name,description,latitude,longitude,site_type,fee,source
usfs-56,NEW RIVER,This site was Temporarily Closed around 20 years ago and never reopened,36.80361111,-80.92527778,CAMPGROUND,No Fee,usfs
usfs-77,RANGER CREEK,RANGER CREEK,47.021073,-121.537637,CAMPGROUND,No Fee,usfs
usfs-85,HENRY LAKE,,48.89016666,-115.50965,CAMPING AREA,No Fee,usfs
usfs-87,LOG LANDING,LOG LANDING (Day Use Area),47.99947222,-113.58055556,CAMPING AREA,No Fee,usfs
usfs-95,EAST BIG BELTS GFA - GIPSY CUA,,46.509,-111.21,CAMPING AREA,No Fee,usfs
usfs-98,BONITO CREEK,BONITO CREEK (Campground),33.466,-105.795,CAMPGROUND,No Fee,usfs
usfs-102,GIANT GAP RIDGE,,39.143,-120.799,CAMPING AREA,No Fee,usfs
usfs-114,A.T. DEEP GAP SHELTER,A.T. DEEP GAP SHELTER (Camping Area),34.88237,-83.64601,CAMPING AREA,No Fee,usfs
usfs-119,COW CAMP GAP A.T. SHELTER,This is an Appalachain Trail shelter.,37.74472222,-79.21333333,CAMPING AREA,No Fee,usfs
usfs-140,WATERWORKS,,48.68369444,-114.75916667,CAMPING AREA,No Fee,usfs
usfs-152,DEVILS CANYON,Site has been decommissioned.,33.32,-111.04,CAMPGROUND,No Fee,usfs
usfs-161,SMITH CREEK HUNT CAMP & BOAT RAMP,,29.91882407,-85.01392172,CAMPING AREA,No Fee,usfs
usfs-162,THIRTEEN FALLS,THIRTEEN FALLS (Campground),44.16515,-71.594967,CAMPGROUND,No Fee,usfs
usfs-194,TULE MEADOW,TULE MEADOW (Camping Area),37.001335,-119.029558,CAMPING AREA,No Fee,usfs
usfs-199,BLUEBIRD LAKE DISPERSED SITE 23,,48.94602,-114.931428,CAMPING AREA,No Fee,usfs
usfs-217,MARIAS/PALOOKAVILLE,,48.33245244,-113.1110069,CAMPING AREA,No Fee,usfs
usfs-243,FREMONT RIVER CUA DISPERSED,"Dispersed Camping Area. There are several locations along the Fremont River between Johnson Valley Reservoir and Mill Meadow Reservoir. The areas have hardened parking areas. Tent camping is permitted in meadows, while vehicle and RV camping is permitted",38.3231,-111.3231,CAMPING AREA,No Fee,usfs
usfs-259,NORTH IRON SPRINGS,NORTH IRON SPRINGS (Camping Area),40.70449918,-109.5557284,CAMPING AREA,No Fee,usfs
usfs-267,STRAWBERRY LAKE,STRAWBERRY LAKE (Camping Area),37.20310278,-119.13613611,CAMPING AREA,No Fee,usfs
usfs-274,LITTLE BAGLEY,,41.017378,-122.043056,CAMPING AREA,No Fee,usfs
usfs-280,A.T. LAUREL FORK SHELTER,A.T. LAUREL FORK SHELTER (Camping Area),36.27873849,-82.1361984,CAMPING AREA,No Fee,usfs
usfs-314,ROCK CREEK,,48.05888889,-115.62777778,CAMPING AREA,No Fee,usfs
usfs-316,GOOSE LAKE CAMPGROUND,"Camp next to a wonderful lake for paddling and breathtaking scenery. Enjoy nearby hiking, biking, and equestrian trails leading to more than 20 scenic lakes.",39.6763,-120.6362,CAMPGROUND,No Fee,usfs
usfs-325,SABE VISTA-01,,45.65200833,-114.94856833,CAMPING AREA,No Fee,usfs
usfs-328,ELMWOOD,This recreation area is located in the northeastern portion of the Francis Marion National Forest. It's a popular camp during deer and turkey hunts on the Waterhorn Hunt Unit. The area also serves as a South Carolina Department of Natural Resources game,33.19895876,-79.47006502,GROUP CAMPGROUND,No Fee,usfs
usfs-347,KINGS RIVER 2,,36.80861111,-118.7763889,CAMPING AREA,No Fee,usfs
usfs-360,EAST BIG BELTS GFA - BENTON GULCH CUA,,46.671,-111.364,CAMPING AREA,No Fee,usfs
usfs-364,SEVEN PINES YELLOW POST SITES,,33.809484,-116.733876,CAMPING AREA,No Fee,usfs
usfs-366,ROUND THE MOUNTAIN,ROUND THE MOUNTAIN,32.66611111,-109.8019444,HORSE CAMP,No Fee,usfs
usfs-382,SPRING HILL,"Spring Hill primarily consists of two distinct areas, not far from each other, that provide excellent dispersed camping opportunities, near water and nestled in Aspen stands. Camping areas are easily accessible off the main Twelve Mile Canyon Road; one o",39.15104,-111.56643,CAMPING AREA,No Fee,usfs
usfs-387,WALROD DESIGNATED CAMPING AREA,"Designated camping area in the Cement Creek drainage, close to Crested Butte. 3 sites are available and camping is allowed only in designated sites. All sites are 4x4 access only. Each site has a fire ring and is marked with a unit marker.",38.8307,-106.8436,CAMPING AREA,No Fee,usfs
usfs-391,CRESCENT LAKE,"Crescent lake is a beautiful 21.6 acre, emerald green lake. This lake is located nine miles north of Metaline Falls, WA, and just one mile south of the Canadian border. Open season runs from the last Saturday in April through October 31. This lake receiv",48.98793054,-117.3143496,CAMPGROUND,No Fee,usfs
usfs-410,CASCADE LAKE SITE 2,,47.87114604,-90.63174668,CAMPING AREA,No Fee,usfs
usfs-427,BEYERS LAKES,,39.386008,-120.557057,CAMPING AREA,No Fee,usfs
usfs-428,A.T. HAWK MOUNTAIN SHELTER,,34.665982,-84.136442,CAMPING AREA,No Fee,usfs
usfs-439,GOLD VALLEY,,39.670514,-120.709195,CAMPING AREA,No Fee,usfs
usfs-447,DEADMAN LAKE,,39.62081,-120.551913,CAMPING AREA,No Fee,usfs
usfs-462,WHITE ROCK SPRINGS,WHITE ROCK SPRINGS (Camping Area),46.99150549,-116.1097582,CAMPING AREA,No Fee,usfs
usfs-508,GRIZZLY PASS,GRIZZLY PASS (Camping Area),37.50536111,-119.49258333,CAMPING AREA,No Fee,usfs
usfs-537,GRIFFITH LAKE TENT AREA,GRIFFITH LAKE TENT AREA (Campground),43.303421,-72.957943,CAMPGROUND,No Fee,usfs
usfs-542,ELLIOT RANCH,,39.158511,-120.739655,CAMPING AREA,No Fee,usfs
usfs-566,A.T. LONG BRANCH SHELTER,,35.06997,-83.49815,CAMPING AREA,No Fee,usfs
usfs-586,BUCKTAIL HUNTER CAMP,BUCKTAIL CAMP (Campground),32.905001,-93.007001,CAMPGROUND,No Fee,usfs
usfs-587,COUGAR POINT CAMPGROUND,COUGAR POINT CAMPGROUND (Campground),45.083168,-114.054661,CAMPGROUND,No Fee,usfs
usfs-615,POISON SPRINGS,POISON SPRINGS (Camping Area),40.044908,-121.393775,CAMPING AREA,No Fee,usfs
usfs-626,RUMBAUGH RIDGE,RUMBAUGH RIDGE (Campground),44.76779,-111.2682,CAMPGROUND,No Fee,usfs
usfs-655,LOWER PARK CREEK,,48.73333333,-121.6627778,CAMPING AREA,No Fee,usfs
usfs-669,BOBBLETS GAP A.T. SHELTER,This is an Appalachain Trail shelter.,37.46666667,-79.70138889,CAMPING AREA,No Fee,usfs
usfs-673,EVANS CREEK CAMPGROUND,Evans Creek Campground is located along Anderson Ranch Reservoir. There are 10 first come first serve campsites.,43.39912,-115.41385,CAMPGROUND,No Fee,usfs
usfs-714,STOVEPIPE SPRINGS DISPERSED CAMPGROUND,STOVEPIPE SPRINGS DISPERSED CAMPGROUND (Campground),44.26234246,-114.70814059,CAMPGROUND,No Fee,usfs
usfs-725,HANSON CAMP (CUA),,39.73375,-121.206886,CAMPING AREA,No Fee,usfs
usfs-752,RD 714-01,,46.163025,-113.98815,CAMPING AREA,No Fee,usfs
usfs-755,SKALKAHO CK-01,,46.21308833,-113.85298667,CAMPING AREA,No Fee,usfs
usfs-762,UPPER GALLINAS,UPPER GALLINAS (Campground),32.89880371,-107.82356262,CAMPGROUND,No Fee,usfs
usfs-783,RD 7173A,,48.57716,-115.16853,CAMPING AREA,No Fee,usfs
usfs-787,DOGWOOD CAMP,"Primitive campground located on Hwy 117 near FH 59 (Longleaf Scenic Byway). The campground has restrooms, water, trash receptacles, and area for trailers/campers.",31.492001,-93.193001,CAMPGROUND,No Fee,usfs
usfs-792,HAWKSEYE CAMP,,47.77318,-115.96116,CAMPING AREA,No Fee,usfs
usfs-811,EAST LAKE,EAST LAKE (Camping Area),37.18126667,-119.02386111,CAMPING AREA,No Fee,usfs
usfs-817,AVALANCHE CG,"Avalanche Campground has 6 first-come first-serve campsites. It is located adjacent to Avalanche Creek. Fishing is available in Avalanche Creek and in the Crystal River, which is 3 miles downstream. One of the major trailheads into the Maroon Bells-Snowm",39.236566,-107.203346,CAMPGROUND,No Fee,usfs
usfs-820,CLIFF LAKE HUNT CAMP,,30.13952186,-84.93254572,CAMPING AREA,No Fee,usfs
usfs-836,SCHAFER AIR,SCHAFER AIR (Camping Area),48.0796,-113.24187222,CAMPING AREA,No Fee,usfs
usfs-840,PARKER CREEK,,37.85742321,-119.135802,CAMPING AREA,No Fee,usfs
usfs-851,ROXIE PECONOM,"Campground located 2 miles off highway 36. There are 10 walk in sites, hand pumped water and vault toilet.",40.355496,-120.810255,CAMPGROUND,No Fee,usfs
usfs-853,MCRAE MEADOWS CAMP,,39.7487,-120.7575,CAMPING AREA,No Fee,usfs
usfs-867,TURKEY RUN PRIMITIVE CAMP,TURKEY RUN TRAILHEAD  FNST Camp Shelter with Kiosk,30.28055556,-82.47916667,CAMPGROUND,No Fee,usfs
usfs-921,NORTH FORK CAMPGROUND,"Group site at 2,500 feet elevation. Maximum trailer length 25 feet. Bring drinking water, toilet paper and pack out all garbage.",47.9879,-120.5809,CAMPGROUND,No Fee,usfs
usfs-929,MOSQUITO FLAT BACKPACKER CG,This is a special one night only campground designed for backpackers on the night before embarking on their backpack trip. 10 Single campsites. It is a walk-in campground (short distance).,37.4345,-118.7471,CAMPGROUND,No Fee,usfs
usfs-936,BOB SCOTT CAMPGROUND,"Generally open May to October as weather and conditions allow. Accessible from U.S. Route 50.In open setting with pinyon-juniper forest at Bob Scott Summit. Hunting for deer and elk in season. Fishing at Birch Creek, 8 miles from campground.",39.4551,-117.0011,CAMPGROUND,No Fee,usfs
usfs-937,SPAR PEAK,,48.22111945,-115.98113334,CAMPING AREA,No Fee,usfs
usfs-956,AIRPORT FLAT CG,Sites are arranged into pods to accommodate groups of 15 - 25 people.,38.985255,-120.380386,CAMPGROUND,No Fee,usfs
usfs-972,EQUINE STAGING AREA,EQUINE STAGING AREA (Camping Area),39.253141,-122.951779,CAMPING AREA,No Fee,usfs
usfs-981,GILBERTS CREEK 2,GILBERTS CREEK 2 (Camping Area),37.104058,-83.497252,CAMPING AREA,No Fee,usfs
usfs-984,POWELL SPRINGS CAMPGROUND,POWELL SPRINGS CAMPGROUND (Campground),34.57841612,-112.0687281,CAMPGROUND,No Fee,usfs
usfs-991,CHAPMAN,,39.647714,-120.532825,CAMPING AREA,No Fee,usfs
usfs-992,TRIDENT COL TENTSITE,,44.44163444,-71.13641111,CAMPGROUND,No Fee,usfs
usfs-1006,DAVENPORT LANDING,"Deep in the floodplain forest along the Ocklawaha River, Davenport Landing is a former steamboat stop along this twisting, winding waterway.  Three primitive campsites provide a stop for paddlers working their way along the river. BoatingPaddle your cano",29.4722,-81.7735,CAMPING AREA,No Fee,usfs
usfs-1031,WHITETAIL MEADOWS,,48.830089,-115.802033,CAMPING AREA,No Fee,usfs
usfs-1057,BIG BLUE,"A real jewel of a secluded campground overlooking a picturesque valley adjacent to the Uncompahgre Wilderness. Located near the junction of Soldier Creek and Blue Creek with variety of hiking trails exist in the area including Big Blue Trail, Fall Creek",38.218422,-107.386177,CAMPGROUND,No Fee,usfs
usfs-1060,CASSIDY BRIDGE,"The Cassidy Bridge Hunt Camp is located in a nicely wooded area along the banks of the Chauga River, one of the popular fishing streams on the district. During big-game and turkey hunting seasons, the campground is opened free of charge. During the rest",34.78572965,-83.209591,GROUP CAMPGROUND,No Fee,usfs
usfs-1067,OAK VALLEY,,39.513999,-121.055098,CAMPING AREA,No Fee,usfs
usfs-1081,RD 2370 SITE 1,,48.628231,-115.900999,CAMPING AREA,No Fee,usfs
usfs-1116,PAIUTE CANYON YELLOW POST SITES,,34.31416667,-117.6077778,CAMPING AREA,No Fee,usfs
usfs-1131,MIRROR CAMP,MIRROR CAMP (Camping Area),37.20961567,-119.12896243,CAMPING AREA,No Fee,usfs
usfs-1137,LONG POINT,LONG POINT (Camping Area),40.20867,-121.755006,CAMPING AREA,No Fee,usfs
usfs-1152,BUTTER GAP SHELTER,,35.25327,-82.80959,CAMPING AREA,No Fee,usfs
usfs-1196,CUCHILLO DEL MEDIO,One of three small sites on paved road to Taos Ski Valley provides access to Rio Hondo fishing and hiking in Columbine-Hondo Wilderness Study Area and Wheeler Peak Wilderness,36.5605,-105.5325,CAMPGROUND,No Fee,usfs
usfs-1213,TAMARACK POINT,TAMARACK POINT (Campground),47.443951,-94.120766,CAMPGROUND,No Fee,usfs
usfs-1215,LOWER BOULDER,,36.755,-118.7913889,CAMPING AREA,No Fee,usfs
usfs-1242,SODA SPRINGS,,39.168342,-120.486471,CAMPING AREA,No Fee,usfs
usfs-1259,TRINITY MOUNTAIN,,41.032078,-123.413381,CAMPING AREA,No Fee,usfs
usfs-1279,DRY FORK,"Dry Fork Recreation Area, a campground and picnic area located at the equestrian trailhead of the 36-mile Cedar Creek Trail.  This area, located in central Missouri near Fulton serves recreationists with or without horses.  This campground is situated",38.784231,-92.125542,HORSE CAMP,No Fee,usfs
usfs-1306,BEAVER LAKE,Beaver Lake campground is in the process of being converted to Beth Lake trailhead. Day use area. Closed for camping.,48.8497,-118.9688,CAMPGROUND,No Fee,usfs
usfs-1333,DALTON DISPERSED,DALTON DISPERSED (Camping Area),35.658857,-105.69031,CAMPING AREA,No Fee,usfs
usfs-1360,A.T. ROAN HIGH KNOB SHELTER,A.T. ROAN HIGH KNOB SHELTER (Camping Area),36.10514648,-82.12221517,CAMPING AREA,No Fee,usfs
usfs-1398,SUOMI SOUTH SIDE M11,,47.4485175,-93.62579889,CAMPING AREA,No Fee,usfs
usfs-1406,HITCHCOCK HUNT CAMP & BOAT RAMP,,30.0809,-84.6509,CAMPING AREA,No Fee,usfs
usfs-1438,LEAVIS FLAT,"Operated by volunteers from the Giant Sequoia National Monument Association. 3000 feet elevation. 9 campsites. 16 foot max RV length. No water, no reservations",36.12730884,-118.6762006,CAMPGROUND,No Fee,usfs
usfs-1443,HEAD WATERS MIDDLE FORK,,39.18984,-120.29829,CAMPING AREA,No Fee,usfs
usfs-1455,GREEN CANYON GROUP CG,,34.22361111,-116.8055556,GROUP CAMPGROUND,No Fee,usfs
usfs-1457,BURNT CREEK,,48.72941111,-115.86964167,CAMPING AREA,No Fee,usfs
usfs-1462,BROWN MTN CREEK A.T. SHELTER,This is an Appalachain Trail shelter.,37.70916667,-79.26833333,CAMPING AREA,No Fee,usfs
usfs-1484,DEER CREEK CAMPGROUND,"5 dispersed camping sites with fire rings are available for small RVs or tent camping, with nearby fishing, hiking, mushroom and berry picking.",47.353261,-115.372867,CAMPGROUND,No Fee,usfs
usfs-1545,UPPER SALT CREEK CG-G_CLOSED,This Site is Permanently Closed.,40.85044026,-122.3368439,GROUP CAMPGROUND,No Fee,usfs
usfs-1591,KREMMER LAKE NORTH (M135),,47.4668933,-93.6400537,CAMPING AREA,No Fee,usfs
usfs-1593,APPLE CANYON YELLOW POST SITES,,33.676568,-116.669207,CAMPING AREA,No Fee,usfs
usfs-1611,GRASSY MOUNTAIN GFA - GRASSY CUA,,46.267,-111.119,CAMPING AREA,No Fee,usfs
usfs-1624,NORTH FORK BEEGUM CREEK CAMP,"This tiny, tents only campground is located near Beegum Creek. Partially shaded with only two campsites, this is a great home base for your adventures! Be aware - there are vault toilets available, but no water.",40.31347,-122.93388,CAMPING AREA,No Fee,usfs
usfs-1659,PISGAH POINT BACKCOUNTRY CAMPING,PISGAH POINT CAMPING AREA,36.9369,-88.1677,CAMPING AREA,No Fee,usfs
usfs-1668,ANGLES CG,The Angles Trailhead is located behind Togwotee Mountain Lodge off of Forest Service Road 30040 approximately 9 miles from the Blackrock Ranger Station; though it is not an official campground there are 2 no-fee campsites without hookups.,43.825036,-110.201691,CAMPGROUND,No Fee,usfs
usfs-1669,RED STAR,,39.053237,-120.534091,CAMPING AREA,No Fee,usfs
usfs-1676,BEAVER CREEK,Beaver Creek is a small (8 sites) campground on the banks of scenic Beaver Creek. There are vault restrooms but no water. There is no fee for camping at Beaver Creek.,41.92726251,-122.8291132,CAMPGROUND,No Fee,usfs
usfs-1682,SKALKAHO RD- 02,,46.18455833,-113.89422667,CAMPING AREA,No Fee,usfs
usfs-1691,WEST BRANCH,This campground was burned severly in 2020. Facilities were affected.,41.93216949,-123.4754983,CAMPGROUND,No Fee,usfs
usfs-1710,NCT-TRACY RUN NORTH SHELTER,NCT-TRACY RUN NORTH SHELTER (Campground),41.962017,-78.918217,CAMPGROUND,No Fee,usfs
usfs-1718,A.T. DOUBLE SPRINGS SHELTER,A.T. DOUBLE SPRINGS SHELTER (Camping Area),36.50912547,-81.98609253,CAMPING AREA,No Fee,usfs
usfs-1744,RIVER BEND CAMPGROUND,River Bend Campground is a primitive campsite nestled in a shaded area alongside Huntington Creek. This campground is located in beautiful Huntington Canyon along the Huntington Canyon National Scenic Byway on Utah Highway 31. It sits at an elevation of,39.439151,-111.134348,CAMPGROUND,No Fee,usfs
usfs-1749,RD4640 CAMP 1,,48.25492,-115.96505167,CAMPING AREA,No Fee,usfs
usfs-1758,LONG POOL,,47.79111,-116.06488,CAMPING AREA,No Fee,usfs
usfs-1759,SOUTH FORK BAY,Dispersed camping located near Rimrock Lake with RV and tent sites.,46.6356932,-121.2647862,CAMPGROUND,No Fee,usfs
usfs-1763,SPLAINS GULCH DESIGNATED CAMPING AREA,"Designated camping area in Splains Gulch, close to Crested Butte. 5 sites are available and camping is allowed only in designated sites. Each site has a fire ring and is marked with a unit marker.",38.85542,-107.07235,CAMPING AREA,No Fee,usfs
usfs-1772,MORRISTOWN,,39.6626,-120.895426,CAMPING AREA,No Fee,usfs
usfs-1781,BENCHMARK ROAD,,47.44603124,-112.8208808,CAMPING AREA,No Fee,usfs
usfs-1782,BASE CAMP,BASE CAMP (Camping Area),37.12354873,-119.17515512,CAMPING AREA,No Fee,usfs
usfs-1795,A.T. FLINT MOUNTAIN SHELTER,,36.03477,-82.59678,CAMPING AREA,No Fee,usfs
usfs-1830,ADELE LAKE (M1),ADELE LAKE (M1) (Camping Area),47.47243361,-93.65338056,CAMPING AREA,No Fee,usfs
usfs-1832,SALMON  LAKES,,39.651729,-120.644115,CAMPING AREA,No Fee,usfs
usfs-1853,HICKEY GAP,HICKEY GAP (Campground),34.89361111,-84.67166667,CAMPGROUND,No Fee,usfs
usfs-1861,WASHINGTON GULCH DESIGNATED CAMPING AREA,"Designated camping area in the Washington Gulch drainage, close to Crested Butte. 48 sites are available and camping is allowed only in designated sites. Each site has a fire ring and is marked with a unit marker. A double vault toilet is available.",38.9337,-107.0183,CAMPING AREA,No Fee,usfs
usfs-1870,GOULD MESA,"Elevation: 1500-Foot ElevationAmenities: 5 Hike-in campsites- Picnic tables and campfire rings, vault toilets, trash receptacles, no piped water available. Seasonal stream water (treat before using). However, water flow may be low or non-existent due to",34.22222222,-118.2222222,CAMPGROUND,No Fee,usfs
usfs-1885,LITTLE AMERICAN VALLEY,,39.18929,-120.33781,CAMPING AREA,No Fee,usfs
usfs-1895,RD 48-01 - ERRONEOUS,,48.60708,-114.96063,CAMPING AREA,No Fee,usfs
usfs-1904,TUNNEL ROCK CG-F,Permanently Closed,40.77239619,-122.7784136,CAMPGROUND,No Fee,usfs
usfs-1950,PEAVINE CREEK CAMPGROUND,"Generally open May to October as weather and conditions allow. Access to the Arc Dome Wilderness by the Peavine and Toms Canyon Trailheads. Located in Peavine Canyon, on the southeastern side of the Toiyabe Mountain Range. Peavine Creek also flows throug",38.6205,-117.3124,CAMPGROUND,No Fee,usfs
usfs-1956,MINGUS GROUP,,34.693731,-112.120258,GROUP CAMPGROUND,No Fee,usfs
usfs-1962,QUEMADO LAKE - EL CASO CG #4,QUEMADO LAKE - EL CASO CG #4 (Campground),34.13826,-108.4612,CAMPGROUND,No Fee,usfs
usfs-1974,CORNEY LAKE REC AREA,"visitors to the south shore camping area can utilize the facilities which include paved roads, lantern posts, fire rings, restrooms, ample parking, and trash receptacles. Visitors to this area can also use single and group picnic facilities which include",32.905001,-92.744001,CAMPGROUND,No Fee,usfs
usfs-1980,SUMMIT MEADOW/LOOKOUT PEAK,,36.76916667,-118.7175,CAMPING AREA,No Fee,usfs
usfs-2011,SPRUCE ISLAND (WEST M4A),,47.46150083,-93.65576667,CAMPING AREA,No Fee,usfs
usfs-2032,KINGS RIVER/PARK BOUNDARY,,36.80305556,-118.7041667,CAMPING AREA,No Fee,usfs
usfs-2047,CEDAR RUSTIC,,41.74165,-123.8767,CAMPING AREA,No Fee,usfs
usfs-2057,SPRUCE ISLAND (EAST M4B),,47.46228083,-93.65308361,CAMPING AREA,No Fee,usfs
usfs-2067,WOLVERINE LAKES DISPERSED SITE 19,,48.971021,-114.921435,CAMPING AREA,No Fee,usfs
usfs-2080,MITCHELL MINE,,39.104067,-120.693541,CAMPING AREA,No Fee,usfs
usfs-2089,BERRY CREEK CAMPGROUND,"This disperse campground has picnic tables and campfire rings. At this campground, recreation activities include river/stream fishing, mountain biking, backpack/day hiking, horseback riding, cross-country skiing, and snowshoeing.",38.8218,-114.6074,CAMPGROUND,No Fee,usfs
usfs-2092,BLACK KETTLE,BLACK KETTLE (Campground),35.7452981,-99.71401584,CAMPGROUND,No Fee,usfs
usfs-2100,TENAJA CAMPGROUND (CLOSED),TENAJA CAMPGROUND (Campground),33.5385,-117.4227,CAMPGROUND,No Fee,usfs
usfs-2107,BOGGS CREEK,This site has been converted to day use only with NO FEE REQUIRED!,34.68888889,-83.89166667,CAMPGROUND,No Fee,usfs
usfs-2110,BUFFALO LAKE DISPERSED,BUFFALO LAKE DISPERSED (Camping Area),38.529402,-79.690892,CAMPING AREA,No Fee,usfs
usfs-2134,KELLER,KELLER (Campground),39.715833,-122.9075,CAMPGROUND,No Fee,usfs
usfs-2140,YUBA PASS,"Yuba Pass Campground is located in the North Yuba River area, atop Yuba Pass on Highway 49. Visitors enjoy a wide variety of recreational activities in the area, including birding, hiking, biking, hunting and fishing. This facility is operated and mainta",39.615927,-120.490693,CAMPGROUND,No Fee,usfs
usfs-2141,TRAPPER FLAT CAMPING AREA,TRAPPER FLAT CAMPING AREA (Camping Area),45.161528,-114.284782,CAMPING AREA,No Fee,usfs
usfs-2143,RD 1356-01,,46.20934833,-113.93378833,CAMPING AREA,No Fee,usfs
usfs-2144,PRIEST A.T. SHELTER,This is an Appalachain Trail shelter.,37.81722222,-79.070011,CAMPING AREA,No Fee,usfs
usfs-2151,LITTLE OAK FLAT,,39.033513,-120.671317,CAMPING AREA,No Fee,usfs
usfs-2173,A.T. WALNUT MOUNTAIN SHELTER,A.T. WALNUT MOUNTAIN SHELTER (Camping Area),35.83617777,-82.93641111,CAMPING AREA,No Fee,usfs
usfs-2197,BRUSH CREEK DESIGNATED CAMPING AREA,"Designated camping area in the Brush Creek drainage, close to Crested Butte. 13 sites are available and camping is allowed only in designated sites. Each site has a fire ring and is marked with a unit marker.",38.8868,-106.9008,CAMPING AREA,No Fee,usfs
usfs-2230,SAPILLO,SAPILLO (Group Campground),33.00800705,-108.11523438,GROUP CAMPGROUND,No Fee,usfs
usfs-2242,MIAMI STAGING AREA,MIAMI STAGING AREA (Camping Area),37.417632,-119.628713,CAMPING AREA,No Fee,usfs
usfs-2243,COLDWATER CANYON YELLOW POST SITES,COLDWATER CANYON YELLOW POST SITES (Camping Area),34.279171,-117.598109,CAMPING AREA,No Fee,usfs
usfs-2251,MCMILLEN,MCMILLEN (Campground),32.92556381,-108.21279907,CAMPGROUND,No Fee,usfs
usfs-2253,SPUNKY,SPUNKY (Campground),34.61027778,-118.3902778,CAMPGROUND,No Fee,usfs
usfs-2283,COYOTE CAMP 3,COYOTE CAMP 3 (Camping Area),37.19370302,-119.10916524,CAMPING AREA,No Fee,usfs
usfs-2295,WILLOW CREEK,"The Willow Creek Campground offers secluded tent and trailer sites in a large ponderosa pine and aspen stand. The campsites are located on the banks of Willow Creek and offers picnic tables, fire rings, and a two vault toilets. The campground is located",42.090367,-120.200912,CAMPGROUND,No Fee,usfs
usfs-2321,A.T. STOVER CREEK SHELTER,,34.6503,-84.19722,CAMPING AREA,No Fee,usfs
usfs-2327,TINCUP,TINCUP Dispersed Site,43.00491834,-111.1016758,CAMPING AREA,No Fee,usfs
usfs-2337,ERSHIM LAKE,ERSHIM LAKE (Camping Area),37.21335025,-119.05902134,CAMPING AREA,No Fee,usfs
usfs-2363,KLAHANIE,"Klahanie is located on the South Fork Calawah River; and has; a; typical; temperate coastal rainforest canopy, including; old growth spruce over 8' in diameter, hanging mosses and a lush carpet of wood sorel and sword fern. Klahanie provides a beautiful,",47.96575,-124.30606,CAMPGROUND,No Fee,usfs
usfs-2377,TROUT LAKES,Trout Lakes contains 12primitive campsites and access roads within the campground. Sites are best suited for tent camping and small campers/camp trailers. Three lakes provide fishing opportunities amid a setting of quiet conifers and aspen. Summer’s qu,36.608874,-106.382825,CAMPGROUND,No Fee,usfs
usfs-2386,AENEAS SPRINGS DISPERSED,,48.540478,-119.150505,CAMPING AREA,No Fee,usfs
usfs-2387,SMITHNECK,,39.577777,-120.159349,CAMPING AREA,No Fee,usfs
usfs-2391,25 MILE CAMPING AREA,25 MILE CAMPING AREA (Camping Area),46.07313233,-115.37724551,CAMPING AREA,No Fee,usfs
usfs-2399,CHOCCOLOCCO TRAIL SHELTER SITE,,33.90452,-85.499331,CAMPING AREA,No Fee,usfs
usfs-2416,BIG FLAT DISPERSED CAMPING,The Big Flat dispersed camping area is a favorite recreational spot anytime of the year because of the spectacular scenery. ATV riders can access the Paiute ATV trail from dispersed camping sites. Many non-motorized trails are also accessable to hiking a,38.2633,-112.3736,CAMPING AREA,No Fee,usfs
usfs-2472,KEY BRIDGE,KEY BRIDGE (Group Campground),33.79689552,-82.14582195,GROUP CAMPGROUND,No Fee,usfs
usfs-2485,EAST BIG BELTS GFA - ATLANTA/MULE CUA,,46.585,-111.258,CAMPING AREA,No Fee,usfs
usfs-2513,JONES VALLEY INLET,JONES VALLEY INLET (Camping Area),40.729318,-122.231393,CAMPING AREA,No Fee,usfs
usfs-2520,UPPER DEER CREEK,UPPER DEER CREEK (Camping Area),40.165483,-121.596578,CAMPING AREA,No Fee,usfs
usfs-2529,GASTON,,39.375952,-120.768074,CAMPING AREA,No Fee,usfs
usfs-2547,WILDHORSE CROSSING  UPPER LOOP GROUP CG,,41.7226,-115.9001,GROUP CAMPGROUND,No Fee,usfs
usfs-2557,RD 711-02,,46.16646667,-113.86289167,CAMPING AREA,No Fee,usfs
usfs-2569,QUEMADO LAKE - EL CASO CG #5,QUEMADO LAKE - EL CASO CG #5 (Campground),34.14024,-108.4549,CAMPGROUND,No Fee,usfs
usfs-2577,CASA LOMA,,39.19735,-120.78528,CAMPING AREA,No Fee,usfs
usfs-2600,SWEETWATER LAKE RECREATION AREA,"FACILITIES:

Sweetwater Campground has 9 partially shaded campsites with picnic tables, food lockers and fire rings. This campground has small sites. Six of the sites can accommodate vehicles up to 30 feet long. There is one vault toilet.

TRAILS - There",39.7974,-107.16099,CAMPGROUND,No Fee,usfs
usfs-2618,RD 13833-01,,45.69973833,-114.25987833,CAMPING AREA,No Fee,usfs
usfs-2623,DRIPPING SPRINGS COMPLEX,,40.921166,-109.352731,CAMPING AREA,No Fee,usfs
usfs-2639,DIAMOND R DISPERSED,DIAMOND R DISPERSED (Camping Area),47.92875,-113.52029,CAMPING AREA,No Fee,usfs
usfs-2656,TETON CANYON ROADS,,47.9140145,-112.7419881,CAMPING AREA,No Fee,usfs
usfs-2663,GRIZZLY FOREBAY (FAMILY CG),GRIZZLY FOREBAY (FAMILY CG) (Campground),39.89096451,-121.2897263,CAMPGROUND,No Fee,usfs
usfs-2681,SOUTH FORK,SOUTH FORK (Campground),33.52863,-108.5862,CAMPGROUND,No Fee,usfs
usfs-2690,TREASURE MOUNTAIN CAMPGROUND,TRESURE MOUNTAIN CAMPGROUND (Campground),43.75489,-110.94641,CAMPGROUND,No Fee,usfs
usfs-2728,SPRING CREEK CG,SPRING CREEK CG (Campground),35.77134095,-99.83939904,CAMPGROUND,No Fee,usfs
usfs-2746,DUNCAN DIVERSON,DUNCAN DIVERSON AREA (Camping Area),39.136928,-120.477443,CAMPING AREA,No Fee,usfs
usfs-2749,BOWMAN LAKE BACKCOUNTRY CAMPSITES,"The campground is walk-in only, with carry-in canoe access.  This quiet and secluded campground is very popular with fisherman and hunters.",43.891536,-85.969627,CAMPING AREA,No Fee,usfs
usfs-2750,SUGAR CREEK HUNTER,SUGAR CREEK HUNTER (Campground),32.962001,-92.792001,CAMPGROUND,No Fee,usfs
usfs-2788,INDIAN HENRY,"CLOSED DUE TO RIVERSIDE FIRE Indian Henry Campground is located in the Mount Hood National Forest, along the scenic Clackamas River. The campground is a great location for relaxation, providing access to the river and the surrounding wilderness, as well",45.108561,-122.0759,CAMPGROUND,No Fee,usfs
usfs-2809,A.T. RUFUS MORGAN SHELTER,A.T. RUFUS MORGAN SHELTER (Camping Area),35.3241749,-83.5904587,CAMPING AREA,No Fee,usfs
usfs-2819,VAN LAKE CAMPGROUND,"VAN LAKE (Camping Area) Newly improved in 2019! Six developed campsites along the southwest end of Van Lake. Two main campground loops with two vault toilets, three bear resistant storage containers, fire rings, picnic tables, and tent pads. Day use park",47.69843,-113.76997,CAMPGROUND,No Fee,usfs
usfs-2827,A.T. BROWN FORK GAP SHELTER,A.T. BROWN FORK GAP SHELTER (Camping Area),35.374274,-83.733915,CAMPING AREA,No Fee,usfs
usfs-2831,OAK KNOLL,OAK KNOLL (Camping Area),37.390881,-91.26786368,CAMPING AREA,No Fee,usfs
usfs-2841,BLACKMORE CAMP,HYALITE BELOW DAM CAMPING (Campground),45.4886,-110.9817,CAMPGROUND,No Fee,usfs
usfs-2852,WINFIELD,xxx,38.98488333,-106.44146778,CAMPING AREA,No Fee,usfs
usfs-2878,CASA DIABLO,CASA DIABLO (Camping Area),37.59753055,-118.59487222,CAMPING AREA,No Fee,usfs
usfs-2894,PNT04 RD5857 SITE B,,48.93433,-115.78828,CAMPING AREA,No Fee,usfs
usfs-2912,CROOKED RIVER #4,,45.7944,-115.5319,CAMPING AREA,No Fee,usfs
usfs-2915,MCCLURE,"The McClure Campground is located on Highway 133, on the south side of McClure Pass. The historic town of Marble is nearby and the campground sits at the head of Lee Creek. Each campsites has a picnic table and fire ring/grill. This quiet campground is s",39.12413,-107.313774,CAMPGROUND,No Fee,usfs
usfs-2922,LITTLE HOLE COMPLEX,LITTLE HOLE COMPLEX (Camping Area),40.911401,-109.313296,CAMPING AREA,No Fee,usfs
usfs-2934,PICNIC LAKE,PICNIC LAKE (Camping Area),48.15685,-113.9296,CAMPING AREA,No Fee,usfs
usfs-2945,UPPER RUSH CREEK,,41.30111111,-120.8502778,CAMPGROUND,No Fee,usfs
usfs-2969,BIG FOOT HORSE CAMP,This horse trail is approximately 23.7 miles long and moderate in difficulty. Big Foot Horse Trail consists of four loops ranging in length from 5 to 11 miles. A ride of almost any desired length can be made by combinations of these loops. Most of the tr,30.6832,-89.0393,HORSE CAMP,No Fee,usfs
usfs-2970,BARKER,BARKER,39.076958,-120.235896,CAMPING AREA,No Fee,usfs
usfs-2990,LUCERNE COMPLEX,,40.983684,-109.591198,CAMPING AREA,No Fee,usfs
usfs-3004,COLD SPRING INDIAN CG,"Indian Campground, not open to the public.",46.080578,-121.750871,CAMPGROUND,No Fee,usfs
usfs-3022,RD 473 CAMP 6,,48.33158833,-116.00651,CAMPING AREA,No Fee,usfs
usfs-3030,WHITE RIVER CAMPGROUND,"There are five camping sites, which include picnic tables and campfire rings. At this campground, recreation activities include river/stream fishing and off-highway vehicle riding.",38.9417,-115.3406,CAMPGROUND,No Fee,usfs
usfs-3051,LOST CREEK,,47.71514,-115.92925,CAMPING AREA,No Fee,usfs
usfs-3070,CLEAR CREEK,,41.953,-113.317,CAMPING AREA,No Fee,usfs
usfs-3081,566 PINEY CREEK HC,The Piney Creek Horse Trail is a system of horse trails that meanders approximately 53 miles through the East Texas pineywoods in the Davy Crockett National Forest.  Trail riding groups of more than 75 persons (including spectators) will need a Special-U,31.3175,-95.18611111,HORSE CAMP,No Fee,usfs
usfs-3086,JUNIPER,,33.98593587,-111.87260139,CAMPING AREA,No Fee,usfs
usfs-3106,FISH CREEK,"CLOSED DUE TO RIVERSIDE FIRE Fish Creek Campground is located next to the Clackamas Wild and Scenic River. It provides access to some of the area ' s whitewater, as well as a place to fish. Whether it is relaxation or expansive exploration, there ' s som",45.158889,-122.151669,CAMPGROUND,No Fee,usfs
usfs-3113,NICHOLS CREEK,,39.562428,-120.3864,CAMPING AREA,No Fee,usfs
usfs-3121,TRACE BRANCH CAMPING AREA,"Trace Branch is a small, dispersed campsite with limited development off Rock Creek Road in McCreary County. The campsite is along Rock Creek, a Kentucky Wild River.",36.673613,-84.596301,CAMPING AREA,No Fee,usfs
usfs-3166,NORTH FORK CALLAHAN,,48.47446945,-116.14299166,CAMPING AREA,No Fee,usfs
usfs-3190,JACK ROBINSON,,39.05651,-120.5497,CAMPING AREA,No Fee,usfs
usfs-3197,REYNOLDS BASIN,,40.911267,-122.022777,CAMPING AREA,No Fee,usfs
usfs-3213,LAST CHANCE,LAST CHANCE (Camping Area),39.11039,-120.62586,CAMPING AREA,No Fee,usfs
usfs-3216,CASTLE PEAK,,39.357143,-120.363951,CAMPING AREA,No Fee,usfs
usfs-3220,LOW LAKE SITE 3,LOW LAKE SITE 3 (Camping Area),47.966452,-91.83092,CAMPING AREA,No Fee,usfs
usfs-3238,CURL RIDGE JEEP,,41.032655,-122.10528,CAMPING AREA,No Fee,usfs
usfs-3240,BIG MEADOW CAMPGROUND,"This campground, at an elevation of 7,500 feet. There are 30 single units and eight double units. Natural Features: An open meadow that is surrounded by a variety of pines, including Lodgepole pines, Jeffery pines and Red fir.  A trailhead nearby leads i",36.72049723,-118.8200602,CAMPGROUND,No Fee,usfs
usfs-3254,HATCH LAKE STAGING,HATCH LAKE STAGING (Camping Area),37.09742222,-119.19503055,CAMPING AREA,No Fee,usfs
usfs-3333,LAKE OF EGYPT - BUCK RIDGE,The southeast side of the Lake of Egypt is surrounded by Shawnee National Forest and open to primitive camping in the general forest area. Hickory Ridge Boat Launch is a gravel launch situated on the eastern finger of Lake of Egypt in Johnson County.  Po,37.578586,-88.880616,CAMPING AREA,No Fee,usfs
usfs-3350,DAVIS PATH A.T. CAMPING AREA,This is an Appalachain Trail shelter.,36.91277778,-81.37777778,CAMPING AREA,No Fee,usfs
usfs-3360,LAZY BEND,"CLOSED DUE TO RIVERSIDE FIRE Lazy Bend Campground sits next to the Wild and Scenic Clackamas River, close to the city of Estacada. The adjacent river provides opportunities for rafting, kayaking, fishing and swimming. The  campground is comfortable for i",45.190369,-122.207589,CAMPGROUND,No Fee,usfs
usfs-3363,BROWN MOUNTAIN CUA ROADSIDE CAMPSITES,BROWN MOUNTAIN CUA ROADSIDE CAMPSITES (Campground),35.89264,-81.74033,CAMPGROUND,No Fee,usfs
usfs-3375,WOLVERINE LAKES DISPERSED SITE 17,,48.970588,-114.921412,CAMPING AREA,No Fee,usfs
usfs-3379,A.T. JERRY CABIN SHELTER,,36.05635,-82.65727,CAMPING AREA,No Fee,usfs
usfs-3393,RD 473 CAMP 5,,48.33438833,-115.98472667,CAMPING AREA,No Fee,usfs
usfs-3398,LAKE OF THE WOODS,Lake of the Woods is a small lake that is popular on weekends.  There are approximately 15 camping spots with fire pits and picnic tables situated along the shoreline.  There is no piped water available. This lake generally opens later in the spring as i,39.503097,-120.391229,CAMPGROUND,No Fee,usfs
usfs-3402,IRON CREEK,IRON CREEK (Campground),32.9094162,-107.80381775,CAMPGROUND,No Fee,usfs
usfs-3405,WOLVERINE LAKES DISPERSED SITE 8,,48.969422,-114.948591,CAMPING AREA,No Fee,usfs
usfs-3416,BRULE LAKE SITE #1,,47.92784,-90.642325,CAMPING AREA,No Fee,usfs
usfs-3441,ROSS CAMP,Ross Campground has three rustic campsites tucked off of the beaten path. It is located next to Jamison Creek in a conifer forest of predominantly red fir trees.,39.89937,-120.18675,CAMPING AREA,No Fee,usfs
usfs-3449,WEST FORK FS 44 DISPERSED,WEST FORK FS 44 DISPERSED (Camping Area),38.565895,-79.827945,CAMPING AREA,No Fee,usfs
usfs-3450,SCOUTANA - SAWMILL,,47.55062252,-112.7365664,CAMPING AREA,No Fee,usfs
usfs-3453,COVE MOUNTAIN A.T. SHELTER,This is an Appalachain Trail shelter.,37.51111111,-79.65083333,CAMPING AREA,No Fee,usfs
usfs-3455,MUSTANG RIDGE COMPLEX,,40.926944,-109.438344,CAMPING AREA,No Fee,usfs
usfs-3457,A.T. MUSKRAT CREEK SHELTER,Shelter on the Appalachian Trail,35.02069433,-83.58134041,CAMPING AREA,No Fee,usfs
usfs-3469,SUMMIT LAKE,SUMMIT LAKE (Camping Area),37.20150556,-118.95970278,CAMPING AREA,No Fee,usfs
usfs-3472,SURPRISE LAKES,SURPRISE LAKES,46.088584,-121.758917,CAMPING AREA,No Fee,usfs
usfs-3540,MILL CREEK - PRIVATE,MILL CREEK - PRIVATE (Campground),40.322973,-121.523656,CAMPGROUND,No Fee,usfs
usfs-3545,LAWRENCE CROSSING,LAWRENCE CROSSING CAMPGROUND (Campground),34.6539,-111.7337,CAMPING AREA,No Fee,usfs
usfs-3553,A.T. SASSAFRAS GAP SHELTER,A.T. SASSAFRAS GAP SHELTER (Camping Area),35.33086,-83.66688,CAMPING AREA,No Fee,usfs
usfs-3564,C64 COPPER BASIN DESIGNATED DISP.,C64 COPPER BASIN DESIGNATED DISP. (Camping Area),34.50715,-112.51855,CAMPING AREA,No Fee,usfs
usfs-3573,COTTONWOOD,COTTONWOOD (Campground),34.63944444,-118.5027778,CAMPGROUND,No Fee,usfs
usfs-3591,SPRUCE CREEK LOOP,,39.04364,-120.57345,CAMPING AREA,No Fee,usfs
usfs-3623,TURKEY TROT HUNTER,TURKEY TROT HUNTER (Campground),32.893001,-92.951001,CAMPGROUND,No Fee,usfs
usfs-3630,HONEY HILL,This primitive camping facility is located between McClellanville and Honey Hill. A short camp loop swings through an upland pine/oak forest and encircles a fire lookout tower. The fire lookout tower is no longer in use.,33.17418402,-79.56184827,CAMPGROUND,No Fee,usfs
usfs-3672,CLARK FORK,"Clark Fork Horse Camp is located past the dump station at Clark Fork Campground,  There are 13 sites available. Some sites have picnic tables. There are three vault toilets and no potable drinking water. There is a watering trough for stock. Road and par",38.400865,-119.793601,HORSE CAMP,No Fee,usfs
usfs-3686,A.T. PLUM ORCHARD SHELTER,Wooden Shelter approximately 4 miles from parking at Dick's Creek Gap,34.94583,-83.5883,CAMPING AREA,No Fee,usfs
usfs-3699,MORAINE CAMPGROUND,"25 sites with portable toilets, this is an overflow campground.",37.929767,-119.159901,CAMPGROUND,No Fee,usfs
usfs-3703,FRISCO CAMP,FRISCO CAMP (Campground),33.205353,-109.149734,CAMPGROUND,No Fee,usfs
usfs-3715,EAST ELKHORNS GFA - SLIM SAM CUA,,46.246,-111.699,CAMPING AREA,No Fee,usfs
usfs-3722,SAWMILL LAKE,,39.44317,-120.59334,CAMPING AREA,No Fee,usfs
usfs-3725,LOWER BRIDGE,LOWER BRIDGE (Camping Area),37.39420555,-119.65180278,CAMPING AREA,No Fee,usfs
usfs-3729,FDR9406L-PIPELINE RD-DESIGNATED DISP.,,34.457417,-112.450917,CAMPING AREA,No Fee,usfs
usfs-3772,MIDDLE FORK CIMARRON DISPERSED,MIDDLE FORK CIMARRON DISPERSED (Camping Area),38.1787,-107.5161,CAMPING AREA,No Fee,usfs
usfs-3781,A.T. WESSER BALD SHELTER,,35.28248,-83.58211,CAMPING AREA,No Fee,usfs
usfs-3802,EAST ELKHORNS GFA - PARK MINES CUA,,46.364,-111.714,CAMPING AREA,No Fee,usfs
usfs-3805,SHADY DELL CG,Site decommissioned.,43.78777778,-122.5405556,GROUP CAMPGROUND,No Fee,usfs
usfs-3856,BEAR CREEK DISPERSED CAMPING AREA,BEAR CREEK DISPERSED CAMPING AREA (Camping Area),34.81472222,-84.56111111,CAMPING AREA,No Fee,usfs
usfs-3865,SPRING CREEK EASTSIDE CAMP AREA,SPRING CREEK EASTSIDE CAMP AREA (Camping Area),35.77243106,-99.83409765,CAMPING AREA,No Fee,usfs
usfs-3891,BULLPEN LAKE,,39.421952,-120.636293,CAMPING AREA,No Fee,usfs
usfs-3948,SUN CANYON - TETON,,47.61892024,-112.7287367,CAMPING AREA,No Fee,usfs
usfs-3960,SLUMGULLION,"Slumgullion Campground is located southeast of Lake City, CO. Visitors who use this campground have access to motorized trails, fishing streams, hiking trails, biking trails and wilderness areas. There are also scenic drives and four-wheel drives close t",37.98671,-107.223554,CAMPGROUND,No Fee,usfs
usfs-3964,LAKE FORK,LAKE FORK (Camping Area),39.944265,-111.42498,CAMPING AREA,No Fee,usfs
usfs-3973,EMPIRE CREEK,,39.624812,-120.7746,CAMPING AREA,No Fee,usfs
usfs-3976,BLUFF SPRINGS,BLUFF SPRINGS (Trailhead),32.83101,-105.73701,CAMPING AREA,No Fee,usfs
usfs-3984,SPENCER CREEK,,39.701835,-120.742397,CAMPING AREA,No Fee,usfs
usfs-4013,CHICO FLAT,This area is currently partially closed to camping per Forest Order 0513-21-13- There is no camping within 350 feet of the Kern River - this area is day-use only until further notice. See link above for further details and map. Dispersed Camping on Upper,35.823536,-118.46223,CAMPGROUND,No Fee,usfs
usfs-4022,NANTAHALA LAKE DISPERSED CAMPING SITE - LAKE ACCESS,,35.168266,-83.669804,CAMPING AREA,No Fee,usfs
usfs-4043,RD 714-02,,46.16959833,-113.981375,CAMPING AREA,No Fee,usfs
usfs-4047,A.T. WHITLEY GAP SHELTER,Wooden Shelter approximately 1 mile from parking lot,34.71238,-83.8338,CAMPING AREA,No Fee,usfs
usfs-4068,A.T. CABLE GAP SHELTER,Trail shelter located on the Appalachian Trail.,35.415304,-83.773418,CAMPING AREA,No Fee,usfs
usfs-4070,CRYSTAL SPRINGS,Site is Permanently Closed,47.3112,-121.3152,CAMPGROUND,No Fee,usfs
usfs-4095,PUNCHBOWL A.T. SHELTER,This is an Appalachain Trail shelter.,37.6775,-79.33861111,CAMPING AREA,No Fee,usfs
usfs-4115,SUOMI SOUTH SIDE DISPERSED SITES M7,"SUOMI SOUTH SIDE DISPERSED SITES M6,M7,M11, M15, M18, M82 (Camping Area)",47.44963639,-93.62921667,CAMPING AREA,No Fee,usfs
usfs-4130,FRENCH CREEK,"This small campground is in a remote area with picnic tables, fire rings, and a vault toilet. This site is popular for rockhounding and exploring the badlands and prairie. Adjacent to the campground is a barren hill with a layer of exposed rocks, includi",43.65875,-103.02775,CAMPGROUND,No Fee,usfs
usfs-4137,AIKEN'S CREEK CAMPGROUND,AIKEN'S CREEK CAMPGROUND (Campground),40.23194444,-123.6547222,CAMPGROUND,No Fee,usfs
usfs-4216,SABE SADDLE-01,,45.673685,-114.94743333,CAMPING AREA,No Fee,usfs
usfs-4221,ALPINE MEADOWS (MARTIS CREEK),,39.32070441,-120.12309781,CAMPGROUND,No Fee,usfs
usfs-4250,EAST ELKHORNS GFA - GLENDALE BUTTE/TH 109 CUA,,46.269,-111.692,CAMPING AREA,No Fee,usfs
usfs-4253,SAMPSON FLAT,,36.79138889,-119.0861111,CAMPING AREA,No Fee,usfs
usfs-4269,MALLARD LAKE,MALLARD LAKE (Camping Area),37.25403707,-119.04449138,CAMPING AREA,No Fee,usfs
usfs-4287,FOURMILE LAKE SITE 2,,47.68634587,-90.96666501,CAMPING AREA,No Fee,usfs
usfs-4290,LT BOULDER BAY-03,,45.72173,-114.262305,CAMPING AREA,No Fee,usfs
usfs-4340,DELTA CAMPGROUND,Closed indefinitely due to the Holiday Farm Fire.,44.1631,-122.2764,CAMPGROUND,No Fee,usfs
usfs-4351,GALLINAS GROUP SITE,GALLINAS GROUP SITE (Camping Area),34.22050695,-105.65035076,CAMPING AREA,No Fee,usfs
usfs-4366,KELLEY CREEK,KELLEY CREEK (Camping Area),43.60148,-115.101289,CAMPING AREA,No Fee,usfs
usfs-4413,ROSS CREEK - MAIN,,48.18413055,-115.98371666,CAMPING AREA,No Fee,usfs
usfs-4415,RD 720-04,,46.11417667,-113.88521333,CAMPING AREA,No Fee,usfs
usfs-4424,MILTON RESERVOIR,"Dispersed camping only. Vault toilet, but no other services are provided.",39.522696,-120.575977,CAMPGROUND,No Fee,usfs
usfs-4426,ALMANOR OVERFLOW,ALMANOR OVERFLOW (Camping Area),40.214703,-121.188205,CAMPING AREA,No Fee,usfs
usfs-4452,MOWER BASIN DISPERSED,MOWER BASIN DISPERSED (Camping Area),38.61994,-79.935067,CAMPING AREA,No Fee,usfs
usfs-4462,MIDDLE MOUNTAIN ROAD FS 14 DISPERSED,MIDDLE MOUNTAIN ROAD FS 14 DISPERSED (Camping Area),38.617197,-79.726823,CAMPING AREA,No Fee,usfs
usfs-4463,COYOTE CAMP 1,COYOTE CAMP 1 (Camping Area),37.18718794,-119.09171548,CAMPING AREA,No Fee,usfs
usfs-4465,JONES CREEK CAMPGROUND,"Basic Camping No Utilities, Boat Ramp",36.6811,-88.0521,CAMPGROUND,No Fee,usfs
usfs-4529,A.T. COLD SPRING SHELTER,,35.231201,-83.559985,CAMPING AREA,No Fee,usfs
usfs-4532,STRAWBERRY LAKE CAMP 2,STRAWBERRY LAKE CAMP 2 (Camping Area),37.20545027,-119.11380173,CAMPING AREA,No Fee,usfs
usfs-4550,NELSON GROUP CG,"Located near Westgard Pass and White Mountain Road, three separate large group sites are popular with academic institutions for geology field trips. Surrounded by Pinyon and Juniper, Camp Nelson, Camp Noren, and Camp Ferguson all have shade ramada ' s, c",37.278326,-118.153914,GROUP CAMPGROUND,No Fee,usfs
usfs-4560,LOST CREEK CAMPGROUND,,46.209165,-113.00328,CAMPGROUND,No Fee,usfs
usfs-4567,LONE ROCK CG,walk/bike/boat in,38.863334,-120.385998,CAMPGROUND,No Fee,usfs
usfs-4593,ABBOTT CREEK,,36.7675,-118.974444,CAMPING AREA,No Fee,usfs
usfs-4606,BRISTOW CREEK 5049B,,48.54428401,-115.26458917,CAMPING AREA,No Fee,usfs
usfs-4625,SLATE RIVER DESIGNATED CAMPING AREA,"Designated camping area in the Slate River drainage, close to Crested Butte. 19 sites are available and camping is allowed only in designated sites, 4x4 recommended for sites 18 and 19. Each site has a fire ring and is marked with a unit marker.",38.9564,-107.061,CAMPING AREA,No Fee,usfs
usfs-4634,RD 7218B,,48.56138,-115.1247,CAMPING AREA,No Fee,usfs
usfs-4709,BARRON DISP SITE 2,,48.51392779,-115.28929398,CAMPING AREA,No Fee,usfs
usfs-4721,SUN CANYON L&C,,47.61083201,-112.7372972,CAMPGROUND,No Fee,usfs
usfs-4729,NEW CANYON,NEW CANYON (Campground),34.6709898,-106.41014016,CAMPGROUND,No Fee,usfs
usfs-4748,PNT03 TR92 SITE C,,48.99913,-115.00605,CAMPING AREA,No Fee,usfs
usfs-4749,RD470-01,,48.554744,-115.145152,CAMPING AREA,No Fee,usfs
usfs-4755,TAYLOR PEAK,,48.38606389,-115.78804722,CAMPING AREA,No Fee,usfs
usfs-4769,EXCELSIOR,"Closed. Road to campground washed out in 2021, campground will be decommissioned.",48.9068,-121.8218,GROUP CAMPGROUND,No Fee,usfs
usfs-4783,NORTH FORK TRINITY,,40.770145,-123.127075,CAMPING AREA,No Fee,usfs
usfs-4788,VOYAGER HORSE CAMP,VOYAGER HORSE CAMP (Camping Area),37.10948964,-118.96386051,CAMPING AREA,No Fee,usfs
usfs-4814,TRAPPER CAMP,,39.498,-120.9542,CAMPING AREA,No Fee,usfs
usfs-4825,EAST TOWER,EAST TOWER CAMPGROUND,30.3837,-82.3305,CAMPGROUND,No Fee,usfs
usfs-4828,RADIO CAMP,RADIO CAMP (Camping Area),37.08641376,-119.22002392,CAMPING AREA,No Fee,usfs
usfs-4858,GRIZZLY CREEK,GRIZZLY CREEK (Camping Area),37.526333,-119.46540202,CAMPING AREA,No Fee,usfs
usfs-4861,BEARTRAP,,39.639492,-120.50649,CAMPING AREA,No Fee,usfs
usfs-4887,A.T. NO BUSINESS KNOB SHELTER,A.T. NO BUSINESS KNOB SHELTER (Camping Area),36.06661925,-82.43358995,CAMPING AREA,No Fee,usfs
usfs-4889,EAST BIG BELTS GFA - WAGNER GULCH CUA,,46.749,-111.454,CAMPING AREA,No Fee,usfs
usfs-4907,BIG JACK LAKE M128,,47.528027,-93.605129,CAMPING AREA,No Fee,usfs
usfs-4930,INDEPENDENCE LAKES CG,Independence Lake Campground and Picnic Area is a non-fee campground and picnic area where reservations are not required. There are 5 single sites.  This area is accessible for a season that varies usually between July through October. Sites are handicap,42.2182692,-113.6743526,CAMPGROUND,No Fee,usfs
usfs-4933,LAUREL FORK PRIMITIVE CAMP,No Information,37.12388889,-82.65027778,CAMPGROUND,No Fee,usfs
usfs-4941,ROBINSON CREEK,,48.94020555,-115.47959167,CAMPING AREA,No Fee,usfs
usfs-4946,GOLD CREEK,"This campground provides access to hiking, horseback riding, fishing and four-wheel driving. The site lies next to the southeastern boundary of the Fossil Ridge Wilderness Area. This natural area is a haven for hikers, backpackers and equestrians. (No me",38.655317,-106.575249,CAMPGROUND,No Fee,usfs
usfs-4965,BIG OAK  HUNTER CAMP,Big Oak Hunter Camp is our only physically disabled hunting area in the Talladega National Forest. This camp is a 1700 acre hunting unit for physically disabled hunters possessing the required State permits in Choccolocco Wildlife Management Area. Big Oa,33.72139,-85.560097,CAMPGROUND,No Fee,usfs
usfs-4971,MUGGLER CREEK,MUGGLER CREEK (Camping Area),37.46763889,-119.42175,CAMPING AREA,No Fee,usfs
usfs-4976,OHMER CREEK CAMPGROUND,The Ohmer Creek Campground is on a minimal maintenance schedule due to budget constraints. Please pack in/pack out your trash and use restroom facilities at neighboring Forest Service recreation areas if a waste containment system is not available on you,56.57732022,-132.74071106,CAMPGROUND,No Fee,usfs
usfs-4977,SKYLINE,SKYLINE FC (Campground),33.41901,-105.73301,CAMPGROUND,No Fee,usfs
usfs-4983,GRAVEL FLAT,"The campground is located along the north side of the Kings River on a large sandy flat area. There is no shade so it is very hot during the summer months, but is a great place for camping in the spring and fall. Access is paved and dirt (last 1 mile). V",36.86467,-119.1133543,CAMPING AREA,No Fee,usfs
usfs-4996,JOHNS HOLLOW A.T. SHELTER,This is an Appalachain Trail shelter.,37.61277778,-79.39194444,CAMPING AREA,No Fee,usfs
usfs-4997,GWYNN TANK,GWYNN TANK (Campground),33.53758,-108.531898,CAMPGROUND,No Fee,usfs
usfs-4999,PIPES CANYON TRAIL CAMP,PIPES CANYON TRAIL CAMP (Campground),34.18027778,-116.6586111,CAMPGROUND,No Fee,usfs
usfs-5003,FOURTH OF JULY CAMPING AREA,FOURTH OF JULY CAMPING AREA (Camping Area),45.410393,-113.858532,CAMPING AREA,No Fee,usfs
usfs-5013,A.T. BALD MOUNTAIN SHELTER,A.T. BALD MOUNTAIN SHELTER (Camping Area),36.00012457,-82.47813247,CAMPING AREA,No Fee,usfs
usfs-5044,COTTON LANDING HUNT CAMP,,30.0523686,-85.0718731,CAMPING AREA,No Fee,usfs
usfs-5054,BRONCO GULCH DISPERSED CAMP,BRONCO GULCH DISPERSED CAMP (Camping Area),43.5355,-115.2923,CAMPING AREA,No Fee,usfs
usfs-5055,BONANZA VOLUNTEER CAMP,"Bonanza CCC Group Campground is located nine miles up the scenic and historic Yankee Fork drainage. It is approximately 23 miles from Stanley, Idaho, at an elevation of 6,500 feet.",44.368155,-114.737016,CAMPGROUND,No Fee,usfs
usfs-5059,NCT-QUEEN CREEK SHELTER,NCT-QUEEN CREEK SHELTER (Campground),41.65007,-79.233434,CAMPGROUND,No Fee,usfs
usfs-5080,DEEP CREEK,"Deep Creek campground is located in the South Warner Mountains, one hour 25 minutes southeast of Lakeview, Oregon. This site offers rustic camping in a ponderosa pine, cottonwood, and aspen setting. Colorful wildflowers are abundant in spring and early s",42.057537,-120.173889,CAMPGROUND,No Fee,usfs
usfs-5096,QUINTONKON,QUINTONKON (Camping Area),48.00965,-113.80321,CAMPING AREA,No Fee,usfs
usfs-5102,SWAMP MEADOW,SWAMP MEADOW (Camping Area),37.13365555,-119.07360278,CAMPING AREA,No Fee,usfs
usfs-5114,CATFISH COVE,CATFISH COVE (Camping Area),39.444147,-121.107405,CAMPING AREA,No Fee,usfs
usfs-5119,BOSQUE,BOSQUE (Campground),34.77218,-106.39212,CAMPGROUND,No Fee,usfs
usfs-5127,SLATE CK-01,,45.70251167,-114.28057833,CAMPING AREA,No Fee,usfs
usfs-5151,WEST ELKHORNS GFA - JOHNNY'S GULCH CUA,,46.23,-111.777,CAMPING AREA,No Fee,usfs
usfs-5192,PEARSON HUNTER CAMP,PEARSON HUNTER CAMP (Campground),31.718001,-92.571001,CAMPGROUND,No Fee,usfs
usfs-5193,TWIN SPRINGS,"Located 40 minutes southeast of Lakeview, Oregon, Twin Springs Campground offers three peaceful campsites at 6,300 feet elevation. Twin Springs is piped out of the rocky hillside near the center of the forest camp amid tall ponderosa pine, white fir, and",42.157251,-120.212419,CAMPGROUND,No Fee,usfs
usfs-5199,LAKEVIEW,LAKEVIEW (Camping Area),39.102374,-122.75721,CAMPING AREA,No Fee,usfs
usfs-5204,BLACKWELL CAMPGROUND,BLACKWELL HORSE CAMP (Horse Camp),39.01684101,-86.38974147,CAMPGROUND,No Fee,usfs
usfs-5211,LAKE CAMP,LAKE CAMP (Camping Area),37.26717531,-119.06246498,CAMPING AREA,No Fee,usfs
usfs-5226,DOCTOR LAKE (M2),,47.46822445,-93.65225139,CAMPING AREA,No Fee,usfs
usfs-5230,MILDRED LAKES,,39.16191,-120.33002,CAMPING AREA,No Fee,usfs
usfs-5255,PORTAL DISPERSED CAMP,PORTAL DISPERSED CAMP (Camping Area),37.31723207,-119.07050752,CAMPING AREA,No Fee,usfs
usfs-5258,CANYON CREEK CG,Site closed.,45.915919,-122.201638,CAMPGROUND,No Fee,usfs
usfs-5287,PINE CREEK CAMPGROUND,Situated on the eastern side of the Toquima Mountain Range in the Monitor Valley. Fishing in Peavine Creek. Two trailheads with access to Arc Dome Wilderness at the end of Forest Road 020. The trail from Peavine trailhead leads up Peavine Canyon to conne,38.7869,-116.8482,CAMPGROUND,No Fee,usfs
usfs-5295,BREWER LAKE,BREWER LAKE (Camping Area),37.16643144,-119.12468877,CAMPING AREA,No Fee,usfs
usfs-5298,O'NEIL CREEK,O'NEIL CREEK (Campground),41.80946116,-123.1158093,CAMPGROUND,No Fee,usfs
usfs-5315,DAVIS,,36.82,-119.0883333,CAMPING AREA,No Fee,usfs
usfs-5325,SPRADDLE CREEK RANCH,SPRADDLE CREEK RANCH (Horse Camp),39.644159,-106.367191,HORSE CAMP,No Fee,usfs
usfs-5328,MC356RD-001,,46.02650833,-115.44336389,CAMPING AREA,No Fee,usfs
usfs-5333,INDEPENDENCE,,47.88736696,-116.22299002,CAMPING AREA,No Fee,usfs
usfs-5365,SAN JUAN CUA,"Generally, open May to October as weather and conditions allow. Dispersed Campground in an open setting with views of the canyon. Access to Toiyabe Crest tiol Recreation Trail by the San Juan Trailhead. County Road 21 intersects, and in places follows, t",39.1206,-117.2724,CAMPGROUND,No Fee,usfs
usfs-5381,BLACK FLAT CUA DISPERSED,Dispersed Camping Area.,38.6787,-111.5962,CAMPING AREA,No Fee,usfs
usfs-5396,LT BOULDER BAY-02,,45.72076667,-114.27102,CAMPING AREA,No Fee,usfs
usfs-5435,BIG VALLEY BLUFF,,39.232124,-120.579096,CAMPING AREA,No Fee,usfs
usfs-5442,WOOD LAKE CAMPGROUND,6 site campground on the lower Ochlockonee,30.02667182,-84.56502603,CAMPGROUND,No Fee,usfs
usfs-5447,WEST BIG BELTS GFA - CONFEDERATE GULCH CUA,,46.643,-111.392,CAMPING AREA,No Fee,usfs
usfs-5459,INDIAN SPRINGS,INDIAN SPRINGS (Camping Area),45.556993,-121.826561,CAMPING AREA,No Fee,usfs
usfs-5462,HANNAN DISPERSED,,47.61923704,-112.7345729,CAMPING AREA,No Fee,usfs
usfs-5466,DIAMOND CREEK,Campground is Closed,42.69940158,-111.1971385,CAMPGROUND,No Fee,usfs
usfs-5473,A.T. STAN MURRAY SHELTER,,36.112361,-82.065722,CAMPING AREA,No Fee,usfs
usfs-5517,HILL LAKE (M86),,47.431632,-93.615016,CAMPING AREA,No Fee,usfs
usfs-5571,POVERTY GULCH DESIGNATED CAMPING AREA,"Designated camping area in Poverty Gulch, close to Crested Butte. 7 sites are available and camping is allowed only in designated sites. Each site has a fire ring and is marked with a unit marker.",38.9566,-107.0789,CAMPING AREA,No Fee,usfs
usfs-5573,LOWER FARNSWORTH CUA DISPERSED,"Dispersed Camping Area. Facilities include vault toilet, information kiosk, and graveled roads. Fishing opportunity at Farnsworth reservoir.",38.7741,-111.6518,CAMPING AREA,No Fee,usfs
usfs-5595,MIRROR LAKE CAMP,MIRROR LAKE CAMP (Camping Area),37.2150858,-119.1259142,CAMPING AREA,No Fee,usfs
usfs-5618,ROCKCASTLE CAMPGROUND - INACTIVE,Rockcastle Campground is currently closed and most improvements have been removed.,36.962358,-84.347947,CAMPGROUND,No Fee,usfs
usfs-5626,SPENCER LAKES,,39.69823,-120.72661,CAMPING AREA,No Fee,usfs
usfs-5628,PINE RIDGE,This campground and day use area is located in a pine forest. The short-leaf pine surrounding the area was planted by the CCC in the 1930.This is popular spot for visitors using the 36-mileCedar Creek Trail to stop for the night. A large field in the day,38.758438,-92.142538,CAMPGROUND,No Fee,usfs
usfs-5637,SOUTH BUCKBOARD DISPERSED,SOUTH BUCKBOARD DISPERSED (Camping Area),41.14322,-109.35183,CAMPING AREA,No Fee,usfs
usfs-5653,HAW CREEK FALLS CG,"Surrounded by a beautiful mature hardwood forest, Haw Creek Falls Point of Interest is located on a small mountain stream with picturesque falls, rocks, and a bluff. The Big Piney Wild and Scenic River is nearby. There is also an accessible trail to the",35.67744361,-93.25615833,CAMPGROUND,No Fee,usfs
usfs-5676,CONASAUGA RIVER CAMPGROUND,CONASAUGA RIVER CAMPGROUND (Campground),34.9899,-84.6356,CAMPGROUND,No Fee,usfs
usfs-5720,WHEELER RANCH,,40.949322,-122.070001,CAMPING AREA,No Fee,usfs
usfs-5727,CORKSCREW,"Corkscrew Camping Area is in the San Juan Mountains 8 miles outside of the town of Ouray, CO. This area provides dispersed camping recreational opportunities. Campers would be centrally located to multiple hiking and four-wheel drive trails.  Iconic trai",37.9391,-107.6713,CAMPING AREA,No Fee,usfs
usfs-5732,FDR 51 POTTS CREEK RD DESIGNATED DISP.,,34.52745,-112.544367,CAMPING AREA,No Fee,usfs
usfs-5745,BOSWELL CREEK,BOSWELL CREEK (Campground),40.99859,-106.1289,CAMPGROUND,No Fee,usfs
usfs-5759,PARTNERSHIP A.T. SHELTER,This is an AT Trail Shelter off of the Sugar Grove Highway,36.810287,-81.422393,CAMPING AREA,No Fee,usfs
usfs-5771,RIVER DUNE BACKCOUNTY GROUP CAMPSITE,"Located between the Au Sable River Scenic Overlook and Au Sable Loop Campground, this small site is a short . 5 mile walk from the gate. Set back from the road and camping area, campers can enjoy views of the river. Visitors can access the river from a s",44.6491111,-84.09491111,CAMPING AREA,No Fee,usfs
usfs-5800,D SPUR,D SPUR (Camping Area),37.50407789,-119.45316821,CAMPING AREA,No Fee,usfs
usfs-5807,LYNX CREEK CAMPGROUND,"Lynx Creek is located 11 miles from the north end of the Greys River Road. No water is available, and visitors are asked to Pack Out whatever is Packed In. A vault toilet is provided and private family picnic tables are scattered along a bench overlookin",43.097096,-110.845964,CAMPGROUND,No Fee,usfs
usfs-5818,BURRELL'S FORD,"Burrells Ford Campground is located on the Chattooga Wild and Scenic River near many miles of hiking trails and is open year round with no charge. The campground is a 0.25 mile walk from the parking lot. A vault toilet, picnic tables, and food storage lo",34.96900499,-83.11813303,CAMPGROUND,No Fee,usfs
usfs-5831,LOWER RUSH CREEK,Shady campsites and a creek running along side makeLower Rush Creek Campgrounda great getaway destination. Trailers larger than 22 feet are not recommended.In the winter months roads may become sofeet or impassable. Please do not create resource damage b,41.29333333,-120.8780556,CAMPGROUND,No Fee,usfs
usfs-5834,WIGWAM RIVER,,48.98136111,-114.82413889,CAMPING AREA,No Fee,usfs
usfs-5835,SCARP LAKE SITE  #1,,47.64037,-91.131785,CAMPING AREA,No Fee,usfs
usfs-5857,WALNUT FLATS,"This small, primitive campground is well suited for tent camping but also accommodates small recreation vehicles. It has shaded sites clustered around a grassy opening surrounded by forest. Flat Top Mountain Trail System, the Appalachian Trail, Dismal Cr",37.19805556,-80.88638889,CAMPGROUND,No Fee,usfs
usfs-5888,JACK CREEK,"Developed campground with picnic tables, grills, fire rings",35.0339235,-93.8485018,CAMPGROUND,No Fee,usfs
usfs-5902,HURRICANE A.T. SHELTER,HURRICANE A.T. SHELTER (Camping Area),36.715312,-81.509508,CAMPING AREA,No Fee,usfs
usfs-5916,SWAMP LAKE,SWAMP LAKE (Camping Area),37.13002448,-119.0726664,CAMPING AREA,No Fee,usfs
usfs-5931,LOCKABY,"CLOSED DUE TO RIVERSIDE FIRE Lockaby Campground is located next to the Wild and Scenic Clackamas River. It provides access to whitewater rafting, as well as a place to fish. Whether it is relaxation or recreation, there 's something for everyone at the c",45.163481,-122.151919,CAMPGROUND,No Fee,usfs
usfs-5932,RD 711-01,,46.165855,-113.85004333,CAMPING AREA,No Fee,usfs
usfs-5986,GOOSE EGG,GOOSE EGG (Camping Area),46.66479,-121.092659,CAMPING AREA,No Fee,usfs
usfs-6017,ALDER CREEK,ALDER CREEK (Camping Area),39.36723,-120.22752,CAMPING AREA,No Fee,usfs
usfs-6049,BIG GULLEY HUNT CAMP & BOAT RAMP,BIG GULLEY HUNT CAMP & BOAT RAMP (Camping Area),30.24103819,-85.03038581,CAMPING AREA,No Fee,usfs
usfs-6061,CIMARRON FORKS,Cimarron Forks Camping Area is located at the confluence of the Middle and East Fork Rivers near Silver Jack Reservoir. This area provides dispersed camping opportunities. The area is also within close proximity to multiple hiking and OHV trails. Two vau,38.202977,-107.517004,CAMPING AREA,No Fee,usfs
usfs-6065,ROCKY POINT,ROCKY POINT (Campground),40.193605,-121.109736,CAMPGROUND,No Fee,usfs
usfs-6073,CIENAGA,CIENAGA (Campground),34.61944444,-118.6361111,CAMPGROUND,No Fee,usfs
usfs-6133,MIAMI STAGING AREA 1,MIAMI STAGING AREA 1 (Camping Area),37.415175,-119.63547222,CAMPING AREA,No Fee,usfs
usfs-6166,EAST FORK,,41.004121,-122.622726,CAMPING AREA,No Fee,usfs
usfs-6175,GLIDDEN LAKE,GLIDDEN LAKE (Camping Area),47.51708,-115.72736,CAMPING AREA,No Fee,usfs
usfs-6187,CRYSTAL,Developed campground amenities,34.47992311,-93.6380258,CAMPGROUND,No Fee,usfs
usfs-6218,EASTERN BIG MEADOW ROAD,,36.71916667,-118.8375,CAMPING AREA,No Fee,usfs
usfs-6232,GRAY ROCK,,41.128174,-122.449036,CAMPING AREA,No Fee,usfs
usfs-6258,BUCK CREEK HORSE CAMP,BUCK CREEK HORSE CAMP (Horse Camp),47.018945,-121.534839,HORSE CAMP,No Fee,usfs
usfs-6263,SUMMIT,"Summit camping area is a great place for those who enjoy rustic camping. Toilets, water, and garbage service are not provided at this site. The site contains one picnic table and rock fire ring.",37.082189,-119.201792,CAMPING AREA,No Fee,usfs
usfs-6287,CHEROKEE CREEK,,39.552,-120.985,CAMPING AREA,No Fee,usfs
usfs-6294,HENDERSONVILLE RESERVOIR RD ROADSIDE CAMPSITES,,35.42396665,-82.65584006,CAMPGROUND,No Fee,usfs
usfs-6342,SUNSHINE BASIN GFA - SUNSHINE CUA,,46.765,-111.531,CAMPING AREA,No Fee,usfs
usfs-6360,SULAK RECREATION AREA,"This site is primarily used by anglers, hunters and families for camping.  There is a short, .25 mile walk from the campsites to the river, through federal and state land.  The river access is operated by the Michigan DNR.",43.923778,-86.013254,CAMPGROUND,No Fee,usfs
usfs-6384,BRYANT RIDGE A.T. SHELTER,This is an Appalachain Trail shelter.,37.53083333,-79.58444444,CAMPING AREA,No Fee,usfs
usfs-6394,TROUT LAKE M32,TROUT LAKE M32 (Camping Area),47.4656997,-93.5595401,CAMPING AREA,No Fee,usfs
usfs-6406,FDR64-MARIPAI RD DESIGNATED DISP.,FDR64-MARIPAI RD DESIGNATED DISP. (Camping Area),34.4859,-112.48811667,CAMPING AREA,No Fee,usfs
usfs-6412,LOWER LAKE (OLALLIE),CLOSED DUE TO RIVERSIDE FIRE: Located on Lower Lake in the Olallie Lake Scenic Area just west of the border with the Warm Springs Indian Reservation. ; The Lake covers 14 acres and deep. There are numerous small lakes in the area worth exploring. Recreat,44.8231,-121.7956,CAMPGROUND,No Fee,usfs
usfs-6430,MUMFORD BAR TO BEACROFT,,39.191568,-120.625208,CAMPING AREA,No Fee,usfs
usfs-6443,ZEDDS MEADOW CUA DISPERED,Dispersed Camping Area,38.3666,-111.37176,CAMPING AREA,No Fee,usfs
usfs-6451,UPPER DEADMAN CG,Elevation 7800 feet. 20 campsites. Campground is not suitable for RV camping. Tent or car camping only. No drinking water is available. 14 day stay limit. A limited  number of bear lockers are shared at this site.,37.721,-119.0113,CAMPGROUND,No Fee,usfs
usfs-6496,FALLS CREEK CG,FALLS CREEK 998 (TRAILHEAD AND CAMPGROUND) (Campground),47.276435,-112.489026,CAMPGROUND,No Fee,usfs
usfs-6509,PONDEROSA GROUP,"Ponderosa pine trees surround and tower over open-space campgrounds, providing cool shade and gorgeous vistas. Most visitors enjoy taking advantage of the area's hiking trails and lakes, traveling to Payson for the day or simply relaxing at the campsite",34.294528,-111.113208,GROUP CAMPGROUND,No Fee,usfs
usfs-6514,EAST FORK DISPERSED,EAST FORK DISPERSED (Camping Area),38.2014,-107.5087,CAMPING AREA,No Fee,usfs
usfs-6524,WESTERN BIG MEADOW ROAD,,36.71166667,-118.8566667,CAMPING AREA,No Fee,usfs
usfs-6543,LAKE CHATUGE RECREATION AREA,LAKE CHATUGE (Campground),34.95472222,-83.77944444,CAMPGROUND,No Fee,usfs
usfs-6545,SHT- WEST DEVIL TRACK,,47.78140583,-90.29489324,CAMPING AREA,No Fee,usfs
usfs-6561,HODGES DISPERSED RECREATION AREA,,36.11524722,-105.63899166,CAMPING AREA,No Fee,usfs
usfs-6568,KENNEDY MEADOW AND BURTON MEADOW,KENNEDY MEADOW AND BURTON MEADOW (Camping Area),36.7625,-118.8333333,CAMPING AREA,No Fee,usfs
usfs-6569,MININGTOWN MEADOW,MININGTOWN MEADOW (Camping Area),37.137657,-119.085232,CAMPING AREA,No Fee,usfs
usfs-6581,SOUTH FORK TAMARACK,SOUTH FORK TAMARACK (Camping Area),37.191057,-119.204843,CAMPING AREA,No Fee,usfs
usfs-6588,WOLVERINE LAKES DISPERSED SITE 15,,48.971131,-114.922046,CAMPING AREA,No Fee,usfs
usfs-6592,ROAD 4562 CAMP A,,48.42302333,-115.95643833,CAMPING AREA,No Fee,usfs
usfs-6598,ORR LAKE,"Orr Lake is a popular fishing area with a beautiful view of Mt Shasta. The lake is the home of trout, bass, and catfish. A scenic trail along the east edge of the lake provides access to several fishing jetties and connects the 4 campsites on the east si",41.6630727,-121.9873001,CAMPGROUND,No Fee,usfs
usfs-6599,QUEMADO LAKE - EL CASO CG #3,QUEMADO LAKE - EL CASO CG #3 (Campground),34.13817,-108.4683,CAMPGROUND,No Fee,usfs
usfs-6616,THOMPSON LAKE,THOMPSON LAKE (Camping Area),37.198875,-118.95891389,CAMPING AREA,No Fee,usfs
usfs-6639,TIP TOP,CLOSED,34.49714941,-81.75397518,GROUP CAMPGROUND,No Fee,usfs
usfs-6679,WASH CREEK ROADSIDE CAMPSITES,,35.43796696,-82.6609939,CAMPGROUND,No Fee,usfs
usfs-6685,DEEP WATER CAMP,,35.40335297,-80.08644226,CAMPING AREA,No Fee,usfs
usfs-6717,NUGGET CREEK,,47.21535227,-115.5577528,CAMPING AREA,No Fee,usfs
usfs-6722,GOUMAZ,"Goumaz campground is between Highway 36 and 44 at the South end of Eagle Lake. There are 5 campsites located along Susan River and adjacent to the Bizz Johnson Trail. This is a great place to start a bike ride, walk or horseback ride along the Bizz. Ther",40.413231,-120.86161,CAMPGROUND,No Fee,usfs
usfs-6732,MOONEY CREEK,,39.382898,-120.651136,CAMPING AREA,No Fee,usfs
usfs-6789,HUGHES CK-03,,45.58111,-114.17484,CAMPING AREA,No Fee,usfs
usfs-6840,THE PINES,"The Pines is a rustic campground in a wooded setting, located adjacent to Barbour's Creek, a stocked trout stream. Most of the campsites are designed for tents, but small recreation vehicles can be accommodated. Jeep enthusiasts can experience some of th",37.604984,-80.0766742,CAMPGROUND,No Fee,usfs
usfs-6847,HOUSTON VALLEY CAMPGROUND,"Houston Valley Recreation Area (elevation 1,800 feet) is centrally located to both Paint Creek and Weaver Bend. It is located directly off Tennessee (TN) Scenic Highway 107.",35.96501747,-82.94331489,CAMPGROUND,No Fee,usfs
usfs-6850,BUCKHORN GAP SHELTER,,35.3431,-82.75537,CAMPING AREA,No Fee,usfs
usfs-6862,JOHNSON CREEK - PRIMITIVE,Only accessible by foot from the Equestrian Parking area of the Johnson Creek Recreation Area.  Take Trail375 to 399 to 382.,37.83472222,-89.50777778,CAMPING AREA,No Fee,usfs
usfs-6889,FIRST DIVIDE,,39.585174,-120.809668,CAMPING AREA,No Fee,usfs
usfs-6958,FIVE LAKES BASIN,FIVE LAKES BASIN (Camping Area),39.408324,-120.56168,CAMPING AREA,No Fee,usfs
usfs-6972,SUNSTRIP,"CLOSED DUE TO RIVERSIDE FIRE Sunstrip Campground is a primitive campground on the banks of the Clackamas Wild and Scenic River. It provides access to a variety of outdoor activities, but retains the look and feel of true nature, with only a few amenities",45.151489,-122.106675,CAMPGROUND,No Fee,usfs
usfs-6977,KINGSTON,KINGSTON CAMPGROUND (Campground),32.91853333,-107.70108032,CAMPGROUND,No Fee,usfs
usfs-7009,BEAR CAMP,BEAR CAMP (Camping Area),36.97195256,-119.20616891,CAMPING AREA,No Fee,usfs
usfs-7061,CROCKER FAMILY CG.,Family campground set in the trees with plenty of shade.,39.68694,-120.64412,CAMPGROUND,No Fee,usfs
usfs-7070,OLD GOLDLEDGE DISPERSED CAMPING,OLD GOLDLEDGE DISPERSED CAMPING (Camping Area),35.879,-118.456,CAMPING AREA,No Fee,usfs
usfs-7071,CALKINS FLATS DISPERSEED CAMPING AREA,,35.918,-118.49,CAMPING AREA,No Fee,usfs
usfs-7087,KEBLER PASS DESIGNATED CAMPING AREA,"Designated camping in the Kebler Pass/Lake Irwin area, close to Crested Butte. 31 sites are available and camping is allowed only in designated sites. Each site has a fire ring and is marked with a unit marker.",38.8547,-107.0917,CAMPING AREA,No Fee,usfs
usfs-7141,NATIONAL GUARD DISPERSED AREA,,40.289386,-111.607122,CAMPING AREA,No Fee,usfs
usfs-7171,THOMPSON RESERVOIR,"Located 20 minutes south of Silver Lake, Oregon, Thompson Reservoir Campground is a desirable camping area located on the western shores of Thompson Reservoir. Enjoy gorgeous views of Hager Mountain and shady campsites thanks to mature ponderosa pines th",42.961331,-121.092528,CAMPGROUND,No Fee,usfs
usfs-7172,BALL FIELD CAMPING AREA,BALL FIELD CAMPING AREA (Camping Area),34.85388889,-84.65388889,CAMPING AREA,No Fee,usfs
usfs-7195,KANAKA CREEK,,39.419784,-120.943756,CAMPING AREA,No Fee,usfs
usfs-7198,F K & L,F K & L (Camping Area),48.33173,-113.95411,CAMPING AREA,No Fee,usfs
usfs-7199,ROARING RIVER,"CLOSED DUE TO RIVERSIDE FIRE Roaring River Campground is located across from the Wild and Scenic Clackamas River in the Cascade Range. The small, rustic campground has charm and provides visitors with access to a variety of outdoor recreation opportuniti",45.157181,-122.114169,CAMPGROUND,No Fee,usfs
usfs-7221,SPRING HILL NORTH DISPERSED CAMPING,,35.865,-118.447,CAMPING AREA,No Fee,usfs
usfs-7227,CASCADE LAKE / LONG LAKE,CASCADE LAKE / LONG LAKE (Campground),39.301318,-120.435447,CAMPING AREA,No Fee,usfs
usfs-7232,BAKER CREEK CAMPING AREA,BAKER CREEK CAMPING AREA,43.7850069,-114.5573007,CAMPGROUND,No Fee,usfs
usfs-7235,KEELER CREEK,,48.335,-115.93792222,CAMPING AREA,No Fee,usfs
usfs-7245,HEADWATERS ROADSIDE CAMPSITES,,35.3352368,-82.7974868,CAMPGROUND,No Fee,usfs
usfs-7258,PORTER HUNT CAMP & TRAILHEAD,"Primary access to Porter Lake, Primitive camping and vault toilet",30.17662908,-84.6772169,CAMPGROUND,No Fee,usfs
usfs-7260,UPPER HUME LAKE ROAD,,36.80527778,-118.8994444,CAMPING AREA,No Fee,usfs
usfs-7273,FDR23-ENCHANTED FOREST TRAIL-DESIGNATED DISP.,FDR23-ENCHANTED FOREST TRAIL-DESIGNATED DISP. (Camping Area),34.49586667,-112.37758333,CAMPING AREA,No Fee,usfs
usfs-7295,LONG BOTTOM FORD,"Also commonly referred to as ""Low Water Bridge Campground"", this quiet primitive campground is located on the banks of the Chattooga River with fishing, boating, and tubing opportunities nearby. It is open year-round with no charge and site amenities inc",34.89833333,-83.18666667,CAMPGROUND,No Fee,usfs
usfs-7314,TEPEE CREEK CAMP,TEPEE CREEK CAMP (Camping Area),46.699649,-115.629254,CAMPING AREA,No Fee,usfs
usfs-7318,PHILBROOK,PHILBROOK (Campground),40.028267,-121.466368,CAMPGROUND,No Fee,usfs
usfs-7345,A.T. CLYDE SMITH SHELTER,A.T. CLYDE SMITH SHELTER (Camping Area),36.14853317,-82.16127759,CAMPING AREA,No Fee,usfs
usfs-7355,HARPERS CREEK A.T. SHELTER,This is an Appalachain Trail shelter.,37.85694444,-79.00055556,CAMPING AREA,No Fee,usfs
usfs-7359,MACNAB POND,"Family Picnic and day use fishing pond on the Ekalaka Hills Unit, Sioux Ranger District.",45.83609,-104.43328,CAMPGROUND,No Fee,usfs
usfs-7378,CHAMISE FLATS DISPERSED CAMPING AREA,CHAMISA FLATS DISPERSED CAMPING AREA (Camping Area),35.911,-118.487,CAMPING AREA,No Fee,usfs
usfs-7410,SOLO JOE,,48.94905277,-115.53421944,CAMPING AREA,No Fee,usfs
usfs-7418,CROSSOVER CAMP,CROSSOVER CAMP (Camping Area),48.01867,-113.58566,CAMPING AREA,No Fee,usfs
usfs-7439,BOLSILLO,"Located along the Kaiser Pass Road near the High Sierra Ranger Station. Bosillo Creek runs adjacent to campground. There are 3 available first-come, first-serve campsites. The Corbett Lake Trail begins at the end of the campground. Large RV or motorhome",37.3151251,-119.0412207,CAMPGROUND,No Fee,usfs
usfs-7447,TUMWATER,"TUMWATER CAMPGROUND CLOSEDBased on the recommendation of Forest Service Hydrologists and the 2014 Burned Area Emergency Response  Team, Tumwater Campground has been closed to the public since 2014.   Tumwater Campground sits on an alluvial fan and is pro",47.6781,-120.7321,CAMPGROUND,No Fee,usfs
usfs-7455,BUCKHORN HUNT CAMP,,30.33465772,-84.5349589,CAMPING AREA,No Fee,usfs
usfs-7459,TENT CITY DESIGNATED CAMPING AREA,"Camping area in the Brush Creek drainage, close to Crested Butte. 13 sites are available and camping is allowed only in designated sites. Each site has a fire ring and is marked with a unit marker. A double vault toilet is available.",38.8969,-106.8848,CAMPING AREA,No Fee,usfs
usfs-7482,WHITEHEAD CAMPGROUND & BOAT RAMP,$3/vehicle,30.16557683,-84.675759,CAMPGROUND,No Fee,usfs
usfs-7486,SPRING HILL SOUTH DISPERSED CAMPING,,35.862,-118.448,CAMPING AREA,No Fee,usfs
usfs-7491,LAKE VALLEY,,39.29467,-120.59309,CAMPING AREA,No Fee,usfs
usfs-7497,A.T. BLOOD MOUNTAIN SHELTER,,34.740111,-83.937463,CAMPING AREA,No Fee,usfs
usfs-7547,CRESTLINE GROUP CAMPGROUND,50 person capacity.,33.312707,-116.863856,GROUP CAMPGROUND,No Fee,usfs
usfs-7550,CEDAR SPRINGS COMPLEX,CEDAR SPRINGS COMPLEX (Camping Area),40.909043,-109.451043,CAMPING AREA,No Fee,usfs
usfs-7601,HIDDEN LAKE CAMPGROUND,,47.143888,-113.562907,CAMPGROUND,No Fee,usfs
usfs-7644,WHITEWATER LAKE COMPLEX,WHITEWATER LAKE COMPLEX (Campground),47.5093765,-92.16681493,CAMPGROUND,No Fee,usfs
usfs-7667,SULLIVAN LAKE CAMPGROUND,SULLIVAN LAKE CAMPGROUND (Campground),47.3808593,-91.66798821,CAMPGROUND,No Fee,usfs
usfs-7669,HARVES RIVER CUA DISPERSED,Dispersed camping site. Facilities include vault toilet and information kiosk. Fishing opportunity at Farnsworth Reservoir.,38.76908056,-111.6522306,CAMPING AREA,No Fee,usfs
usfs-7675,FRENCHY POINT,,39.455724,-121.156069,CAMPING AREA,No Fee,usfs
usfs-7711,DIAMOND LAKE CAMPGROUND,,47.150837,-115.164899,CAMPGROUND,No Fee,usfs
usfs-7714,PETE CREEK MEADOW,,48.95709444,-115.84197222,CAMPING AREA,No Fee,usfs
usfs-7752,LITTLE LONG MOUNTAIN SHELTER,,35.5007449,-79.952919,CAMPING AREA,No Fee,usfs
usfs-7758,AVERY CREEK ROADSIDE CAMPSITES,,35.2965278,-82.7394444,CAMPING AREA,No Fee,usfs
usfs-7763,WEST FORK CIMARRON DISPERSED,WEST FORK CIMARRON DISPERSED (Camping Area),38.1310278,-107.5587626,CAMPING AREA,No Fee,usfs
usfs-7808,JACK PINE FLATS,The Jackpine Flats campground is located 20 miles south of Trout Creek on Beaver Creek road 152. The campground has 1 site with table and fire ring. This campsite is best suited for tents or a pop up trailer as there is limited space to maneuver an RV. A,47.685194,-115.646559,CAMPING AREA,No Fee,usfs
usfs-7814,WILSON CREEK A.T. SHELTER,This is an Appalachain Trail shelter.,37.41833333,-79.78472222,CAMPING AREA,No Fee,usfs
usfs-7817,RD 473 CAMP 8 SUMMIT,,48.31714167,-116.07670333,CAMPING AREA,No Fee,usfs
usfs-7835,CEBOLLA,This campground lies on the banks of Cebolla Creek in a spruce/fir landscape. It is located at 9200 foot elevation. It has 5 sites.,38.047327,-107.10028,CAMPGROUND,No Fee,usfs
usfs-7843,JACK THE HORSE M130,JACK THE HORSE M130 (Camping Area),47.62166,-93.631668,CAMPING AREA,No Fee,usfs
usfs-7848,DRY OAK,,39.244331,-122.85169,CAMPING AREA,No Fee,usfs
usfs-7858,FULDA CREEK,,39.27343,-120.68424,CAMPING AREA,No Fee,usfs
usfs-7890,AZALEA COVE CG,"This is a walk-in, bike-in or boat-in campground.",38.881372,-120.369814,CAMPGROUND,No Fee,usfs
usfs-7902,KARR CANYON LOWER,KARR CANYON LOWER (Campground),32.89701,-105.81301,CAMPGROUND,No Fee,usfs
usfs-7904,GREEN CABIN FLAT,"1,000-foot elevation. Undeveloped camping area on the wild and scenic Kings River. This area is secluded and requires significant travel time to visit giant sequoia trees. Whitewater rafting down to Pine Flat Reservoir, with up to Class III rapids. Speci",36.85958604,-119.1025228,CAMPGROUND,No Fee,usfs
usfs-7906,LEES POINT,LEES POINT (Campground),48.14874,-116.24888,CAMPING AREA,No Fee,usfs
usfs-7908,NORTH FORK YAAK RIVER,,48.95815833,-115.61230278,CAMPING AREA,No Fee,usfs
usfs-7911,LITTLE BEAR LAKE SITE 1,,47.974444,-115.514444,CAMPING AREA,No Fee,usfs
usfs-7940,WEST BIG BELTS GFA - MAGPIE CREEK CUA,,46.73,-111.602,CAMPING AREA,No Fee,usfs
usfs-7951,BLACK JACK GROUP CG,Group Campground,33.05615556,-109.0799389,GROUP CAMPGROUND,No Fee,usfs
usfs-7958,BOX CR CG,"The Box Creek Trailhead is located on the Buffalo Valley Road, about 8 miles from Highway 26. This trail is not as well-known as other routes into the Teton Wilderness; however, it is frequently used by ranger patrols and outfitters to reach Enos Lake",43.8611,-110.2942889,CAMPGROUND,No Fee,usfs
usfs-7968,NOONTOOTLA DISPERSED AREA,,34.695,-84.21027778,CAMPING AREA,No Fee,usfs
usfs-7982,SHADOW CREEK,,41.20250528,-123.0688563,CAMPGROUND,No Fee,usfs
usfs-7986,BELMOT CAMGROUND,Primitive campground with no development or site features.,38.59089,-116.89078,CAMPGROUND,No Fee,usfs
usfs-7987,WEST BIG BELTS GFA - BOULDER LAKES CUA,,46.525,-111.277,CAMPING AREA,No Fee,usfs
usfs-8001,UPPER SHAKE,Closed Campground.,34.69111111,-118.5297222,CAMPGROUND,No Fee,usfs
usfs-8023,BOULDER FLAT,"Boulder Flat, located at milepost 122 of US Highway 12 along the Lochsa River, offers dispersed camping, a vault toilet, and unimproved access to the river.",46.339171,-115.315073,CAMPING AREA,No Fee,usfs
usfs-8029,ARCHIE KNOWLES,ARCHIE KNOWLES (Campground),44.02121,-123.80313,CAMPGROUND,No Fee,usfs
usfs-8039,PACKER SADDLE,,39.621387,-120.667323,CAMPING AREA,No Fee,usfs
usfs-8041,CORRAL CREEK,"Dispersed camping and day use site along the North Fork of the Kern River. Portable toilets and trash bins available during summer months. No water available. Small, short trail leads to Corral Creek Picnic Area, which is a small beach along the Kern Riv",35.855861,-118.450138,CAMPGROUND,No Fee,usfs
usfs-8086,NCT-BIG BOULDER SHELTER,NCT-BIG BOULDER SHELTER (Campground),41.533428,-79.216784,CAMPGROUND,No Fee,usfs
usfs-8193,MIDDLE BEAR LAKE SITE 3,,47.979167,-115.520278,CAMPING AREA,No Fee,usfs
usfs-8248,DISPOSED - CYPRESS PARK,This site no longer exists.,31.77444444,-109.3125,CAMPGROUND,No Fee,usfs
usfs-8302,BLUEBIRD LAKE DISPERSED SITE 26,,48.945777,-114.930966,CAMPING AREA,No Fee,usfs
usfs-8365,BOGARD,"Quiet and tucked away from the beaten path. Pine creek adjacent to campground, beautiful aspens in and around campground. Located 1.75 miles off Highway 44. No Fees. 10 sites. Hand pumped water. Vault toilets, Maximum trailer length 25 feet.",40.3574928,-121.098122,CAMPGROUND,No Fee,usfs
usfs-8366,NCT-HUNTER STATION SHELTER,NCT-HUNTER STATION SHELTER (Campground),41.63361,-79.1000036,CAMPGROUND,No Fee,usfs
usfs-8380,SHASTA LAKE SHORELINE,,40.717045,-122.406857,CAMPING AREA,No Fee,usfs
usfs-8391,THOMAS HUNTING GROUNDS YELLOW POST SITES,THOMAS HUNTING GROUNDS YELLOW POST SITES (Camping Area),34.1305556,-117.01101944,CAMPING AREA,No Fee,usfs
usfs-8408,GRIZZLY RIDGE MEADOW,GRIZZLY RIDGE MEADOW (Camping Area),40.7526569,-109.4867113,CAMPING AREA,No Fee,usfs
usfs-8410,LAUREL TRAIL SHELTER SITE,,33.761581,-85.579656,CAMPING AREA,No Fee,usfs
usfs-8447,SALINA CREEK SECOND CROSSING TRAILHEAD,Trailhead and dispersed camping. Information kiosk and vault restroom.,38.993326,-111.636713,CAMPING AREA,No Fee,usfs
usfs-8468,A.T. LOW GAP SHELTER,Wooden Shelter approximately 3 miles from the parking lot.,34.77613,-83.8246,CAMPING AREA,No Fee,usfs
usfs-8472,BROWN HOUSE HUNT CAMP,,30.30319654,-84.50968194,CAMPING AREA,No Fee,usfs
usfs-8474,WOLF CREEK INDUSTRIAL,This site is adjacent to Wolf Creek Campground.  Fees are collected at Wolf Creek Campground.,44.2497193,-119.8268054,CAMPGROUND,No Fee,usfs
usfs-8505,OAK HORSE CAMP,Primitive camping area within the National Red Dirt Wildlife Management Preserve.  Restrooms available.  Designated horse camp.,31.516001,-93.06001,CAMPGROUND,No Fee,usfs
usfs-8514,BLACK GULCH SOUTH,BLACK GULCH SOUTH (Camping Area),35.59072777,-118.5303611,CAMPING AREA,No Fee,usfs
usfs-8532,CHURCH MEADOW,,39.668834,-120.612395,CAMPING AREA,No Fee,usfs
usfs-8537,THUNDER HILL A.T. SHELTER,This is an Appalachain Trail shelter.,37.5267866,-79.50468505,CAMPING AREA,No Fee,usfs
usfs-8545,LITTLE BEAR LAKE SITE 2,,47.974,-115.515,CAMPING AREA,No Fee,usfs
usfs-8551,FARLES PRAIRIE HUNT CAMP,FARLES PRAIRIE HUNT CAMP,29.10338333,-81.67431667,CAMPGROUND,No Fee,usfs
usfs-8556,WILLOW LAKE,WILLOW LAKE (Camping Area),40.402603,-121.353502,CAMPING AREA,No Fee,usfs
usfs-8575,INDIAN CREEK DISPERSED CAMPING,"To access this area, take Indian Creek road (FR119). This dispersed camping area offers a number of places for camping all along  FR 119. The reservoir is stocked with several trout species and offers great fishing to visitors throughout the summer month",38.42589722,-112.4826639,CAMPING AREA,No Fee,usfs
usfs-8605,COLDBROOK CG,,34.23527778,-116.9302778,CAMPGROUND,No Fee,usfs
usfs-8610,BUMBLEBEE MEADOW #4,,47.634702,-116.287369,CAMPING AREA,No Fee,usfs
usfs-8619,BUNKER PARK,BUNKER PARK (Camping Area),47.82108334,-113.44666666,CAMPING AREA,No Fee,usfs
usfs-8629,WILLOW OAK,CLOSED,34.38791915,-81.5183505,GROUP CAMPGROUND,No Fee,usfs
usfs-8636,GERTRUDE CREEK EAST,GERTRUDE CREEK EAST (Camping Area),37.262593,-119.425661,CAMPING AREA,No Fee,usfs
usfs-8682,SCOTT RESERVOIR,"Day-use only, no camping.  Situated near Scott Reservoir.  Portable toilets only. Garbage dumpster only available from June to September.  Pack It In.Pack It Out",34.17614167,-109.9595306,CAMPGROUND,No Fee,usfs
usfs-8683,AMMONS BRANCH CAMP,AMMONS BRANCH CAMP (Campground),35.02198941,-83.14556484,CAMPGROUND,No Fee,usfs
usfs-8700,SUGAR CREEK 3,,37.12332,-83.50291,CAMPING AREA,No Fee,usfs
usfs-8724,ANTONE SPRING,ANTONE SPRING (Camping Area),38.3226,-108.1838,CAMPING AREA,No Fee,usfs
usfs-8744,KANE HOLLOW,KANE HOLLOW (Camping Area),40.71004188,-109.5316668,CAMPING AREA,No Fee,usfs
usfs-8746,QUARTZ MOUNTAIN,QUARTZ MOUNTAIN (Camping Area),37.53182,-119.44915,CAMPING AREA,No Fee,usfs
usfs-8758,ROCK RAPIDS DISPERSED CAMPSITES,ROCK RAPIDS DISPERSED CAMPSITES (Camping Area),46.0914,-84.986992,CAMPING AREA,No Fee,usfs
usfs-8796,EAST BIG BELTS GFA - CAMAS LAKE CUA,,46.556,-111.232,CAMPING AREA,No Fee,usfs
usfs-8811,LAVA FLAT DESIGNATED DISPERSED CAMPING AREA,"The Lava Flat dispersed camping area is located off of the Mammoth Road near Duck Creek, UT.For information on dispersed camping click on the related link to the right.",37.541915,-112.64556,CAMPING AREA,No Fee,usfs
usfs-8815,RED SPRINGS/LODGEPOLE COMPLEX,RED SPRINGS/LODGEPOLE COMPLEX (Camping Area),40.811819,-109.465482,CAMPING AREA,No Fee,usfs
usfs-8820,HERBERT,CLOSED,34.57306742,-81.45971149,CAMPGROUND,No Fee,usfs
usfs-8834,DOGWOOD SHELTER,,34.863129,-76.798511,CAMPING AREA,No Fee,usfs
usfs-8855,LITTLE NEEDLE LAKE,,39.18182,-120.29994,CAMPING AREA,No Fee,usfs
usfs-8861,CARTER BRIDGE,"CLOSED DUE TO FIRE: On the Wild and Scenic Clackamas River. The campground is a compact single loop through cedars, maples, and alders. A couple of berry patches suggest good picking in late summer. Some sites have great views of the river. Popular recre",45.168134,-122.157323,CAMPGROUND,No Fee,usfs
usfs-8887,BEAR CREEK HUNT CAMP,The Bear Creek Hunt Camp is a three-sided shelter available for free public use.  There is a picnic table and fire ring located onsite.  There is a fourteen day stay limit within a 30 day period at this shelter.,35.421021,-83.949579,CAMPGROUND,No Fee,usfs
usfs-8917,KINGS RIVER 1,KINGS RIVER 1 (Camping Area),36.80805556,-118.8,CAMPING AREA,No Fee,usfs
usfs-8937,BOUTON LAKE,BOUTON LAKE (Campground),31.0286,-94.3181,CAMPING AREA,No Fee,usfs
usfs-8949,WEAVER LAKE,,39.463837,-120.653903,CAMPING AREA,No Fee,usfs
usfs-8953,COLUMBINE CAMPGROUND,Generally open May to October as weather and conditions allow. Access/entry point for the Arc Dome Wilderness Area by the Stuart Creek Trailhead. Trailhead access to Toiyabe Crest tiol Recreation Trail through the Arc Dome Wilderness. A stock loading ram,38.900237,-117.37649,CAMPGROUND,No Fee,usfs
usfs-8959,LAUREL PONDS,,37.61767778,-118.87825,CAMPING AREA,No Fee,usfs
usfs-8982,FORJER LAKE (M13),,47.45352194,-93.65767611,CAMPING AREA,No Fee,usfs
usfs-8987,CHICKEN ROCK,CHICKEN ROCK (Camping Area),37.11244,-118.96536,CAMPING AREA,No Fee,usfs
usfs-9010,CAT HWY 472 CAMP,CAT HIGHWAY 472 CAMP (Campground),31.738001,-92.514001,CAMPGROUND,No Fee,usfs
usfs-9020,MADRONE COVE,MADRONE COVE (Camping Area),39.465086,-121.156651,CAMPING AREA,No Fee,usfs
usfs-9066,CHICAGO STUMP,"The Chicago Stump Trail is a short and easy hike to a very interesting and historical site. The hike weaves throughJeffrey pines and shrubs to a verdant meadowringed by young sequoias, red firs and azaleas. The Chicago Stump was originally known as the G",36.793056,-118.980278,CAMPING AREA,No Fee,usfs
usfs-9068,DUNCAN CREEK,,39.12209,-120.494398,CAMPING AREA,No Fee,usfs
usfs-9081,FALL CREEK,,39.360584,-120.696009,CAMPING AREA,No Fee,usfs
usfs-9102,LOWER LEE VINING CAMPGROUND,"Campground is situated at 7,300 feet.51 campsites are available. No drinking water. Portable toilets. 14 day stay limit. Each campsite is equipped with a bear locker for food storage.",37.928609,-119.152489,CAMPGROUND,No Fee,usfs
usfs-9133,EAST BIG BELTS GFA - BIRCH CREEK BASIN CUA,,46.501,-111.21,CAMPING AREA,No Fee,usfs
usfs-9138,REDFISH INLET CG,"Redfish Lake Inlet is accessible either through water access: shuttle boat, kayak, canoe or hiking in. The campground consists of 4 sites and is first-come, first-serve. This site has trash removal and toilets but no potable water. It is located at the v",44.0994,-114.9522,CAMPGROUND,No Fee,usfs
usfs-9155,BOULDER CAMPGROUND,BOULDER CAMPGROUND,37.9299,-119.1694,CAMPGROUND,No Fee,usfs
usfs-9171,KARR CANYON UPPER,KARR CANYON UPPER (Campground),32.88101,-105.78201,CAMPGROUND,No Fee,usfs
usfs-9182,EARL TENNANT CAMPGROUND,EARL TENNANT CAMPGROUND (Campground),46.773754,-114.435243,CAMPGROUND,No Fee,usfs
usfs-9186,PNT01 TR62A CAMPSITE D,,48.8357666,-115.4457,CAMPING AREA,No Fee,usfs
usfs-9198,COPPERHEAD LANDING SHELTER,,34.903484,-76.83104,CAMPING AREA,No Fee,usfs
usfs-9206,FORD POINT,,39.184016,-120.568275,CAMPING AREA,No Fee,usfs
usfs-9232,GOTHIC DESIGNATED CAMPING AREA,"Designated camping area in the Gothic Corridor, close to Crested Butte and the Gothic Campground. 14 semi-primitive sites are available. Camping is allowed only in designated sites. Each site has a tent pad, picnic table, and fire ring and is marked with",38.9993,-107.0212,CAMPING AREA,No Fee,usfs
usfs-9239,COFFEE CREEK RD,,41.085784,-122.707606,CAMPING AREA,No Fee,usfs
usfs-9252,A.T. VANDEVENTER SHELTER,A.T. VANDEVENTER SHELTER (Camping Area),36.36706704,-82.05876523,CAMPING AREA,No Fee,usfs
usfs-9256,A.T. LITTLE LAUREL SHELTER,,36.015011,-82.736067,CAMPING AREA,No Fee,usfs
usfs-9266,BEASORE/CHIQUITO,BEASORE/CHIQUITO (Camping Area),37.494925,-119.40622778,CAMPING AREA,No Fee,usfs
usfs-9292,HOT SPRINGS,This campground is currently not operational.,43.71771544,-121.2010628,CAMPGROUND,No Fee,usfs
usfs-9300,JOE ELLIOTT YELLOW POST SITES,,34.23658,-117.526124,CAMPING AREA,No Fee,usfs
usfs-9305,A.T. CARTER GAP SHELTER,,35.00097222,-83.49652777,CAMPING AREA,No Fee,usfs
usfs-9306,NCT-CHAPPEL FORK SHELTER,NCT-CHAPPEL FORK SHELTER (Campground),41.80005,-78.86683,CAMPGROUND,No Fee,usfs
usfs-9319,DUSY CREEK CAMP 1,DUSY CREEK CAMP 1 (Camping Area),37.12839104,-118.9658059,CAMPING AREA,No Fee,usfs
usfs-9343,BANKSTON CAMP,BANKSTON CAMP (Campground),31.702001,-92.513001,CAMPGROUND,No Fee,usfs
usfs-9383,RENSHAW LAKE,,47.5141,-112.81297,CAMPING AREA,No Fee,usfs
usfs-9462,WEST EKLHORNS GFA - SOUTH CROW LAKES TH,,46.264167,-111.825,CAMPING AREA,No Fee,usfs
usfs-9473,SADDLE BAYOU HUNTER CAMP,Saddle Bayou is a designated hunter campground.,31.703001,-92.602001,CAMPGROUND,No Fee,usfs
usfs-9483,KINGS RIVER 4,,36.8025,-118.7394444,CAMPING AREA,No Fee,usfs
usfs-9523,WEST BIG BELTS GFA - SULPHUR BAR CUA,,46.308,-111.189,CAMPING AREA,No Fee,usfs
usfs-9529,OAKEY TRAIL SHELTER SITE,OAKEY TRAIL SHELTER SITE (Camping Area),33.904542,-85.499331,CAMPING AREA,No Fee,usfs
usfs-9533,A.T. BLUE MOUNTAIN SHELTER,A.T. BLUE MOUNTAIN SHELTER (Camping Area),34.81713,-83.76678,CAMPING AREA,No Fee,usfs
usfs-9542,BORREGO MESA,"The Borrego Mesa Campground is located close to several trailheads leading into the north half of the Pecos Wilderness. Amenitites include picnic tables, firepits and small corrals at each site suitable for one or two horses. The Vaulted toilet is curren",35.97723769,-105.7716926,CAMPGROUND,No Fee,usfs
usfs-9567,SPANISH LAKE,SPANISH LAKE (Camping Area),36.92194929,-118.91907614,CAMPING AREA,No Fee,usfs
usfs-9585,DICKINSON CREEK,"The Dickinson Creek Campground has 15 campsites and is located near the boundary of the Popo Agie Wilderness. No trailers over 20 feet long. Amenities include two vault toilets, picnic tables and cook grates. Potable water is not available. From this cam",42.83602,-109.05765,CAMPGROUND,No Fee,usfs
usfs-9603,A.T. BLACK MOUNTAIN GAP SHELTER,A.T. BLACK MOUNTAIN GAP SHELTER (Camping Area),34.61753,-84.19879,CAMPING AREA,No Fee,usfs
usfs-9633,TROUT LAKE M31,TROUT LAKE M31 (Camping Area),47.4657417,-93.5588682,CAMPING AREA,No Fee,usfs
usfs-9657,TWIN POLES HUNT CAMP,,30.12417437,-84.84795196,CAMPING AREA,No Fee,usfs
usfs-9688,PAINT CREEK DISPERSED CAMPSITES,PAINT CREEK DISPERSED CAMPSITES (Camping Area),35.95214265,-82.89135212,CAMPING AREA,No Fee,usfs
usfs-9697,BLUEBIRD LAKE DISPERSED SITE 22,,48.944773,-114.932688,CAMPING AREA,No Fee,usfs
usfs-9733,CONVICT FLAT CAMPGROUND,"Located within the  Kings Canyon, 19 miles NE of Grant Grove via Hwy 180. Family campground (5 units). Suitable for small - midsize trailers. Elevation 3,000 feet. Standard amenity fee collected as part of an interagency agreement with the National Park",36.81807615,-118.8312622,CAMPGROUND,No Fee,usfs
usfs-9748,BLACKJACK LODGE SHELTER,,34.794806,-76.768641,CAMPING AREA,No Fee,usfs
usfs-9757,JUNCTION 75,,46.11606333,-113.879325,CAMPING AREA,No Fee,usfs
usfs-9812,YELLOW CREEK,YELLOW CREEK (Camping Area),40.126299,-121.244445,CAMPING AREA,No Fee,usfs
usfs-9832,SUTTON BLUFF,"Roomy campsites surrounded by open lawn and natural shading, cool breezes, abundant songbirds, and scenic views all await visitors at the Sutton Bluff Recreation Area. The Sutton Bluff Campground is set alongside the West Fork of the Black River in a for",37.475744,-91.006698,CAMPGROUND,No Fee,usfs
usfs-9859,BRIDGES RIVERSIDE CG,BRIDGES RIVERSIDE CG (Campground),39.547723,-111.166905,CAMPGROUND,No Fee,usfs
usfs-9863,STRATTON VIEW SHELTER & TENT AREA,overnight shelter located within one mile of the Appalachian National Scenic Trail and coincident Long Trail,43.106111,-72.971667,CAMPGROUND,No Fee,usfs
usfs-9876,BILLY CREEK,Campground scheduled for decommissioning as funding is available,34.6907066,-94.73167,CAMPGROUND,No Fee,usfs
usfs-9938,BIG JOHN'S DISPERSED CAMPING,"Dispersed camping area is located just south of the Tushar Mountain Peaks, Big John Flat area is a favorite recreational spot because of its large meadows that have spectacular scenery. This area also offers opportunities for winter sport enthusiasts suc",38.3443,-112.3999,CAMPING AREA,No Fee,usfs
usfs-9955,INDIAN CREEK CAMPGROUND,INDIAN CREEK CAMPGROUND (Campground),34.48106096,-112.498821,CAMPGROUND,No Fee,usfs
usfs-9983,SODA SPRINGS-02,,45.78773667,-114.37222667,CAMPING AREA,No Fee,usfs
usfs-9998,WHITE ROCK,White Rock is a primitive campground on Tahoe National Forest managed by PG&E.,39.419654,-120.390123,CAMPGROUND,No Fee,usfs
usfs-10014,EVANS CREEK,EVANS CREEK,46.939722,-121.9375,GROUP CAMPGROUND,No Fee,usfs
usfs-10024,HUMBUG RIDGE,,39.17705,-120.68249,CAMPING AREA,No Fee,usfs
usfs-10037,BLUEBIRD LAKE DISPERSED SITE 25,,48.944498,-114.930896,CAMPING AREA,No Fee,usfs
usfs-10056,BRIDGER CREEK,,39.4773,-121.0975,CAMPING AREA,No Fee,usfs
usfs-10102,RIO CHAMA,"The Rio Chama is a developed no-fee campground where reservations are not required. Located along the Rio Chama Wild and Scenic River, the developed campground offers a great place for families, groups, or RVs to come camp on the river 's edge. Uses: cam",36.35513478,-106.67273356,GROUP CAMPGROUND,No Fee,usfs
usfs-10108,NCT-HAMMOND RUN SHELTER,NCT- HAMMOND RUN SHELTER (Campground),41.866798,-78.85024,CAMPGROUND,No Fee,usfs
usfs-10109,POULUOS LOOP,CLOSED,34.74915359,-81.45373874,CAMPGROUND,No Fee,usfs
usfs-10151,GENTIAN POND SHELTER,,44.45353,-71.071461,CAMPGROUND,No Fee,usfs
usfs-10188,COOKS LAKE,"Cooks Lake is a small, shallow 11.1 acre lake which lies northeast of Usk, WA. It offers rainbow trout fishing opportunities. During dry summer months the lake level can significantly recede. There is easy access for launching a small boat. Several camps",48.34355586,-117.1685472,CAMPGROUND,No Fee,usfs
usfs-10189,LAKE CREEK CAMPING AREA,LAKE CREEK CAMPING AREA (Camping Area),45.015711,-113.996414,CAMPING AREA,No Fee,usfs
usfs-10191,JEFFERSON HUNT,JEFFERSON HUNT (Campground),41.249263,-111.768771,CAMPGROUND,No Fee,usfs
usfs-10194,DUSY CAMP 3,DUSY CAMP 3 (Camping Area),37.12957205,-118.96718654,CAMPING AREA,No Fee,usfs
usfs-10208,SKALKAHO RD- 01,,46.205,-113.86129333,CAMPING AREA,No Fee,usfs
usfs-10222,NCT-GIBBS SPRING SHELTER,NCT-GIBBS SPRING SHELTER (Campground),41.7167,-78.8825,CAMPGROUND,No Fee,usfs
usfs-10237,LANGFORD LAKE CAMP,LANGFORD LAKE CAMP (Campground),46.27222492,-89.49279231,CAMPGROUND,No Fee,usfs
usfs-10317,DAVIS CREEK,,48.525,-114.95369444,CAMPING AREA,No Fee,usfs
usfs-10323,MAGNOLIA HUNT CAMP,,30.07390413,-84.90087671,CAMPING AREA,No Fee,usfs
usfs-10336,HAVEN LAKE CAMPGROUND,"Haven Lake Campground has 4 campsites. Access to some campsites is via rough unpaved road. Some of the features of this area include breathtaking scenery and over 20 scenic lakes for hiking, biking, and equestrian enjoyment.",39.6726,-120.6304,CAMPGROUND,No Fee,usfs
usfs-10376,ONION SPRINGS OVERFLOW,Overflow camping area has one vault toilet.,37.40505833,-119.12967778,CAMPING AREA,No Fee,usfs
usfs-10398,PALISADE/GLACIER GROUP CG,Clyde Glacier group campsite can accommodate up to 25 people. Palisade Glacier group campsite is tent only and can accommodate 20 people. These group sites are close to Upper Sage Flat family campground so loud events are not appropriate. Equestrian faci,37.128632,-118.422588,GROUP CAMPGROUND,No Fee,usfs
usfs-10401,BUCKBOARD COMPLEX,BUCKBOARD COMPLEX (Camping Area),41.248922,-109.602154,CAMPING AREA,No Fee,usfs
usfs-10429,INDIAN FLATS GROUP CAMP (DISPOSED),INDIAN FLATS GROUP CAMP (Group Campground) Decomissioned,33.3491,-116.6586,GROUP CAMPGROUND,No Fee,usfs
usfs-10446,SHEEP CAMP,,40.599871,-122.59446,CAMPING AREA,No Fee,usfs
usfs-10461,PEAVINE ROAD,,39.05635,-120.62048,CAMPING AREA,No Fee,usfs
usfs-10472,NORTH FORK,NORTH FORK (Camping Area),40.357648,-121.402828,CAMPING AREA,No Fee,usfs
usfs-10497,SWIFT CREEK CAMPGROUND,"Seven shady campsites are nestled at the base of the Salt River Range right along the musical Swift Creek just outside Afton, Wyoming. A single faucet is available at site 1, and an accessible toilet is provided in the center of the campground. Large pic",42.725167,-110.906586,CAMPGROUND,No Fee,usfs
usfs-10532,WOLVERINE LAKES DISPERSED SITE 20,,48.969854,-114.921579,CAMPING AREA,No Fee,usfs
usfs-10536,SODA SPRINGS-01,,45.78976167,-114.356665,CAMPING AREA,No Fee,usfs
usfs-10540,POW5650RD-001,,46.546225,-114.70051111,CAMPING AREA,No Fee,usfs
usfs-10558,SHENANIGAN FLAT,,39.515259,-121.034325,CAMPING AREA,No Fee,usfs
usfs-10564,CASTLE CREEK CAMPGROUND,Castle Rock Campground is located on Anderson Ranch Reservoir. There are two first come first serve campsites.,43.41114,-115.39491,CAMPGROUND,No Fee,usfs
usfs-10565,TWIN LAKES CAMPGROUND,"Twin Lakes was once the site of factory buildings, stores and row houses owned by the McKean Chemical Company which made wood alcohol. A company splash dam, used to augment water levels for the chemical plant downstream once occupied the site of today's",41.61416667,-78.75555556,CAMPGROUND,No Fee,usfs
usfs-10603,STOCKTON FLATS YELLOW POST SITES,,34.296874,-117.590524,CAMPING AREA,No Fee,usfs
usfs-10612,BLACK OAK GROVE,BLACK OAK GROVE (Camping Area),40.190796,-121.827139,CAMPING AREA,No Fee,usfs
usfs-10635,RICE LAKE SITE 2,,47.78302008,-90.77921449,CAMPING AREA,No Fee,usfs
usfs-10663,QUINN SPRINGS CAMPGROUND,QUINN SPRINGS RECREATION AREA (Campground),35.2289,-84.5478,CAMPGROUND,No Fee,usfs
usfs-10694,BURLINGTON,,39.309723,-120.806464,CAMPING AREA,No Fee,usfs
usfs-10723,ELBOW LAKE SITE 4,,47.73472697,-91.0016232,CAMPING AREA,No Fee,usfs
usfs-10728,A.T. SILER BALD SHELTER,,35.144316,-83.572504,CAMPING AREA,No Fee,usfs
usfs-10767,SQUIRREL FLAT,,41.00598,-122.647799,CAMPING AREA,No Fee,usfs
usfs-10783,A.T. GOOCH MOUNTAIN SHELTER,A.T. GOOCH MOUNTAIN SHELTER (Camping Area),34.65553,-84.0503,CAMPING AREA,No Fee,usfs
usfs-10807,RAINY HILL,,47.475,-116.587,CAMPING AREA,No Fee,usfs
usfs-10809,CLAY LAKE HUNT CAMP,CLAY LAKE HUNT CAMP (Camping Area),29.02246667,-81.45655,CAMPING AREA,No Fee,usfs
usfs-10817,RANGE STUDY AREA,RANGE STUDY AREA (Camping Area),40.71514662,-109.4751523,CAMPING AREA,No Fee,usfs
usfs-10841,BLUEBIRD LAKE DISPERSED SITE 24,,48.946115,-114.931253,CAMPING AREA,No Fee,usfs
usfs-10857,LOSTINE CORRIDOR CAMPGROUND,"All locations in the Lostine Corridor are listed separately, so no need for this one.",45.312558,-117.400636,CAMPING AREA,No Fee,usfs
usfs-10885,BENCH CAMP,,34.210175,-117.12358056,CAMPING AREA,No Fee,usfs
usfs-10939,MARTEN CREEK,MARTEN CREEK (Camping Area),47.88069288,-115.75376777,CAMPING AREA,No Fee,usfs
usfs-10943,MARTEN CREEK,Currently closed.,48.07876389,-121.6067556,GROUP CAMPGROUND,No Fee,usfs
usfs-10945,TWIN PONDS CUA DISPERSED,"Dispersed Camping Area. Facilities include vault toilet, information map, and graveled sites. Fishing opportunities at Twin Ponds reservoir.",38.7869,-111.6417,CAMPING AREA,No Fee,usfs
usfs-10946,DICKS CREEK DISPERSED AREA,,34.68138889,-83.93833333,CAMPING AREA,No Fee,usfs
usfs-10979,BRANDY CITY,,39.543546,-121.023896,CAMPING AREA,No Fee,usfs
usfs-10992,STRAWBERRY LAKE CAMP 1,STRAWBERRY LAKE CAMP 1 (Camping Area),37.20102177,-119.13083689,CAMPING AREA,No Fee,usfs
usfs-11007,33 MILE DISPERSED,33 MILE DISPERSED (Camping Area),45.031902,-115.722717,CAMPING AREA,No Fee,usfs
usfs-11091,WEST BIG BELTS GFA - DUCK CREEK CUA,,46.496,-111.283,CAMPING AREA,No Fee,usfs
usfs-11094,BECKLER RIVER,BECKLER RIVER (Camping Area),47.802867,-121.292731,CAMPING AREA,No Fee,usfs
usfs-11125,GARDEN POINT,GARDEN POINT (Camping Area),39.431,-121.125884,CAMPING AREA,No Fee,usfs
usfs-11137,VOYAGER OVERFLOW,VOYAGER OVERFLOW (Camping Area),37.11178945,-118.96385236,CAMPING AREA,No Fee,usfs
usfs-11165,RED CLOUD -NEW,RED CLOUD -NEW (Campground),34.19017154,-105.72563688,CAMPGROUND,No Fee,usfs
usfs-11171,LAKE SHERWOOD VOLUNTEER VILLAGE,LAKE SHERWOOD VOLUNTEER VILLAGE (Campground),38.008215,-80.011877,CAMPGROUND,No Fee,usfs
usfs-11215,RED BLUFF HUNTER,Primitive camping area near the National Red Dirt Wildlife Management Preserve. Restrooms and trash receptacles available. Designated for general camping.,31.498001,-93.144001,CAMPGROUND,No Fee,usfs
usfs-11259,RED MAILBOX,,45.6539,-115.3446,CAMPING AREA,No Fee,usfs
usfs-11260,GUILLIARD LAKE,GUILLIARD LAKE,33.28476329,-79.61886805,CAMPGROUND,No Fee,usfs
usfs-11264,FDR373-THUMB BUTTE LOOP DESIGNATED DISP.,,34.5424,-112.54778333,CAMPING AREA,No Fee,usfs
usfs-11266,LICKSTONE DISPERSED CAMPSITES,,35.3709,-82.9451,CAMPING AREA,No Fee,usfs
usfs-11283,SANFORD LAKE,,39.387854,-120.604147,CAMPING AREA,No Fee,usfs
usfs-11287,A.T. CURLEY MAPLE GAP SHELTER,A.T. CURLEY MAPLE GAP SHELTER (Camping Area),36.1043,-82.3971,CAMPING AREA,No Fee,usfs
usfs-11299,PROSPECT,PROSPECT (Campground),34.62361111,-118.5569444,CAMPGROUND,No Fee,usfs
usfs-11307,FDR80-SUNDANCE RD DESIGNATED DIDP,,34.4479,-112.43695,CAMPING AREA,No Fee,usfs
usfs-11366,WEST BIG BELTS GFA - WHITES GULCH CUA,,46.613,-111.509,CAMPING AREA,No Fee,usfs
usfs-11380,HOGBACK,,40.883489,-121.999165,CAMPING AREA,No Fee,usfs
usfs-11384,DOG LAKE DAY USE AREA,,30.37672014,-84.39869986,CAMPING AREA,No Fee,usfs
usfs-11398,NORTH BEND CAMPSITES,NORTH BEND CAMPSITES (Camping Area),38.230903,-80.441589,CAMPING AREA,No Fee,usfs
usfs-11408,LUTHER PASS OVERFLOW CAMPGROUND,Low development scale Forest Service operated campground,38.79592665,-120.0055414,CAMPGROUND,No Fee,usfs
usfs-11415,SHARP CREEK GROUP,"Sharp Creek sits at a cool 6,000 feet elevation, perfect for escaping the desert heat of southern Arizona and getting away to shaded forests and refreshing creeks and lakes. It is surrounded by a thick ponderosa pine forest below the Mogollon Rim. The cl",34.37443927,-111.4427702,GROUP CAMPGROUND,No Fee,usfs
usfs-11425,DRY FORK DISPERSED,DRY FORK DISPERSED (Camping Area),47.066675,-110.726008,CAMPING AREA,No Fee,usfs
usfs-11433,ELK CREEK CG,"Elk Creek Campground is composed of 3 campsites, located in a lodgepole pine understory, This small campground offers one group site that consists of three smaller sites. The group site can accommodate up to 40 people. If the group site is not reserved,",44.2658,-114.7236,GROUP CAMPGROUND,No Fee,usfs
usfs-11440,HAIGLER CANYON,"Haigler Canyon is deep within the forest. The unpaved road is windy, narrow, and steep which makes this recreation site a favorite for OHV use. Families enjoy driving down meandering roads on their OHVs while anglers enjoy fishing for trout at Haigler Cr",34.219757,-110.963455,CAMPGROUND,No Fee,usfs
usfs-11441,FISH CAMP/BIG CREEK,FISH CAMP/BIG CREEK (Camping Area),37.46166667,-119.54161111,CAMPING AREA,No Fee,usfs
usfs-11445,GRAPEVINE,"Grapevine Campground is located along the banks of the Chauga River, one of the popular fishing streams on the district.  It is open year round with no charge and site amenities include fire rings, lantern posts, and a vault toilet.",34.822994,-83.180484,CAMPGROUND,No Fee,usfs
usfs-11468,HOSKINS LAKE,,48.88504722,-115.63515833,CAMPING AREA,No Fee,usfs
usfs-11502,GOLD LAKE CAMPGROUND,"Gold Lake Campground (6,400' elevation) is located along the shores of glacially carved Gold Lake. A high clearance vehicle is recommended to access most campsites. The campground is nestled in a red fir dominated mixed conifer forest.",40.11469,-120.32126,CAMPGROUND,No Fee,usfs
usfs-11511,ROCKY BRANCH,"Rocky Branch Seasonal Camp is part of the Enoree Ranger
District of the Francis Marion Sumter National Forest, managed by the U.S. Department of Agriculture's Forest Service. This camp offers a rustic setting ideal for camping, canoeing, and hunting.  Th",34.43513086,-81.32969892,CAMPGROUND,No Fee,usfs
usfs-11534,CLIFF CREEK,,47.34978,-115.66949,CAMPING AREA,No Fee,usfs
usfs-11535,52 LANDING,,29.0472,-81.508,CAMPING AREA,No Fee,usfs
usfs-11606,SECRET CANYON / AMERICAN HILL,,39.15935,-120.59635,CAMPING AREA,No Fee,usfs
usfs-11612,PIERCE POND,,36.65027778,-118.9402778,CAMPING AREA,No Fee,usfs
usfs-11619,DAISY,,48.869102,-119.877953,CAMPING AREA,No Fee,usfs
usfs-11637,SATSOP CENTER,Satsop Center Campground is located just southeast of Wynoochee Lake. Evergreen conifers and hardwoods provide a beautiful wooded setting at this; historic Forest Service work center. This campground; is an ideal location for group gatherings and camping,47.36799,-123.56606,GROUP CAMPGROUND,No Fee,usfs
usfs-11663,BOULDER GAGING,,48.59832,-116.09139,CAMPING AREA,No Fee,usfs
usfs-11666,BEAR LAKE,BEAR LAKE (Camping Area),39.05014,-120.22889,CAMPING AREA,No Fee,usfs
usfs-11675,MAUPIN FIELD A.T. SHELTER,This is an Appalachain Trail shelter.,37.88472222,-78.99361111,CAMPING AREA,No Fee,usfs
usfs-11676,CEDAR SPRINGS YELLOW POST SITE,,33.65416,-116.589621,CAMPING AREA,No Fee,usfs
usfs-11685,SILVER LAKE,,30.405518,-84.406738,CAMPING AREA,No Fee,usfs
usfs-11700,WOLVERINE LAKES DISPERSED SITE 9,,48.96951,-114.918505,CAMPING AREA,No Fee,usfs
usfs-11713,FERGUSON GROUP CG,"Located near Westgard Pass and White Mountain Road, three separate large group sites are popular with academic institutions for geology field trips. Surrounded by Pinyon and Juniper, Camp Nelson, Camp Noren, and Camp Ferguson all have shade ramada ' s, c",37.279656,-118.154574,GROUP CAMPGROUND,No Fee,usfs
usfs-11720,SOUTH RIDGE YELLOW POST SITES,,33.735514,-116.685786,CAMPING AREA,No Fee,usfs
